[{"bldgID": "0", "lat":29.64898, "lng":-82.34292, "bldg":"0001", "cname":"UNIVERSITY AUDITORIUM", "oname":"UNIVERSITY AUDITORIUM", "add1":"333 NEWELL DR", "abbrev":"AUD", "descrip":"The Auditorium is one of several university buildings included in the National Register of Historic Places. It includes a concert stage, seating for 843, and is suitable for musical concerts, special lectures, convocations and less technically demanding dance concerts and pageants. Among other amenities is the Friends of Music room, a tastefully designed and decorated room used for receptions. The Auditorium is also home to the Anderson Memorial Organ.", "url":"http://www.performingarts.ufl.edu"},{"bldgID": "1", "lat":29.64928, "lng":-82.34209, "bldg":"0002", "cname":"GRINTER HALL", "oname":"LINTON E. GRINTER HALL", "add1":"1523 UNION RD", "abbrev":"GRI", "descrip":"", "url":""},{"bldgID": "2", "lat":29.64946, "lng":-82.34159, "bldg":"0003", "cname":"WALKER HALL", "oname":"COL. EDGAR S. WALKER HALL", "add1":"1489 UNION RD", "abbrev":"WAL", "descrip":"Named for Colonel E. S. Walker", "url":""},{"bldgID": "3", "lat":29.65008, "lng":-82.34205, "bldg":"0004", "cname":"PEABODY HALL", "oname":"GEORGE PEABODY HALL", "add1":"1500 UNION RD", "abbrev":"PEA", "descrip":"Funded by the Peabody Foundation, this building opened in 1913 as the home of predecessor of  UF`s College of Education now located in the Norman Hall complex.   It was  designed in Collegiate Gothic style by architect William A. Edwards.  In 1990 Peabody was renovated and skillfully linked to the neighboring Criser Hall designed by VOA Associates.  Criser-Peabody now house the Registrar`s Office and other student services.  A statue of UF`s second president, Albert A. Murphree, is the focal point of a  courtyard framed by Smathers Library, Criser Hall, and Peabody Hall. Peabody Hall was added to the National Register of Historic Places in 1979.   It is a part of the University of Florida Campus Historic District, a collection of  buildings added to the National Register as an historic district in 1989.  ", "url":""},{"bldgID": "4", "lat":29.65092, "lng":-82.34181, "bldg":"0005", "cname":"SMATHERS LIBRARY", "oname":"GEORGE S. SMATHERS LIBRARY", "add1":"1508 UNION RD", "abbrev":"SMA", "descrip":"Smathers Library (also known as Library East) is the oldest library on the University of Florida campus. Named for: George A. Smathers, in 1991  Special Feature:  The History of Learning in Florida, by Hollis Holbrook (interior mural)-", "url":"http://www.uflib.ufl.edu/east.html"},{"bldgID": "5", "lat":29.65127, "lng":-82.34032, "bldg":"0006", "cname":"BRYAN HALL", "oname":"NATHAN P. BRYAN HALL", "add1":"1384 UNION RD", "abbrev":"BRY", "descrip":"Bryan Hall opened in 1914 as the building for the College of Law.  It was named for U.S. Senator Nathan P. Bryan, first chairman of the Florida Board of Control.  The building was originally designed by architect William A. Edwards  in Collegiate Gothic style.  A major addition was designed by Guy Fulton, supervising architect, in 1949.  Interesting features include plaques with reliefs bearing legal symbols such as the scale of justice.  -  Bryan  Hall was added to the National Register in 1979.  It is a part of the University of Florida Campus Historic District, a collection of buildings added to the National Register as an historic district in 1989.   ", "url":""},{"bldgID": "6", "lat":29.65158, "lng":-82.34189, "bldg":"0007", "cname":"ANDERSON HALL", "oname":"JAMES N. ANDERSON HALL", "add1":"1507 W UNIVERSITY AV", "abbrev":"AND", "descrip":"Anderson Hall opened in 1906. It originally housed classroom space and offices for humanities programs such as history, languages, classics, in addition to mathematics.   The building was renamed in 1949 after Dr. James Nesbitt Anderson, originally of the faculty of the Florida Agricultural College, Lake City.  Dr. Nesbitt, a professor of Greek and Latin, served as first Dean of the Graduate School as well as first Dean of the College of Arts and Sciences.    Anderson  Hall was designed in Collegiate Gothic style by architect William A. Edwards.    Anderson Hall was added to the National Register in 1979.  It is a part of the University of Florida Campus Historic District, a collection of buildings added to the National Register as an historic district in 1989.    ", "url":""},{"bldgID": "7", "lat":29.65143, "lng":-82.34395, "bldg":"0008", "cname":"KEENE-FLINT HALL", "oname":"KEENE-FLINT HALL", "add1":"80 NEWELL DR", "abbrev":"FLI", "descrip":"It was completed in 1910.  Originally, its first floor housed the departments of bacteriology, botany, chemistry, horticulture, physics, and zoology.  On the second floor was the University Museum which, in 1914, became the Florida State Museum. The building was named for Dr. Edward R. Flint, chemistry professor and University Physician, in the 1950s.  Keene-Flint Hall was constructed by the J. J. Cain Company of Atlanta. Keene-Flint Hall commenced renovation in 1999 under the direction of Rowe Architects. The renovation was made possible by a gift in 1997 from Kenneth and Janet Keene whose support along with matching state funds also enabled the renovation of Anderson Hall.  The name of Flint Hall was changed in honor of the Keenes.   Keene-Flint Hall was added to the National Register of Historic Places in 1979.  It is a part of the University of Florida Campus Historic District, a collection of buildings added to the National Register as an historic district in 1989.  ", "url":""},{"bldgID": "8", "lat":29.65043, "lng":-82.34428, "bldg":"0009", "cname":"LEIGH HALL", "oname":"TOWNES R. LEIGH HALL", "add1":"165 BUCKMAN DR", "abbrev":"LEI", "descrip":"The Chemistry-Pharmacy Building was completed in the fall of 1927. Designed by Rudolph Weaver, it was built by J. L. Crouse Company.  In 1949 a new wing designed by Guy Fulton was added to the west enlarging the building to about about 90,000 square feet.  In 1950, th Chemistry-Pharmacy Building was named after Dr. Townes R. Leigh, who had served UF as a vice president, dean of the College of Liberal Arts and Sciences, and chair of the Chemistry Department (1920-49).  Leigh Hall is part of a complex of buildings devoted to chemistry research and education.  (Pharmacy moved to the Health Sciences Center in the early 1960s.)  Other buildings include the Chemistry Research Building (1967) and the Chemistry Laboratory (1990).   Leigh Hall was added to the National Register in 1979.  It is a part of the University of Florida Campus Historic District, a group of buildings added to the National Register as an historic district in 1989.    ", "url":""},{"bldgID": "9", "lat":29.65011, "lng":-82.34378, "bldg":"0010", "cname":"GRIFFIN-FLOYD HALL", "oname":"B.H. GRIFFIN - W.L. FLOYD HALL", "add1":"230 NEWELL DR", "abbrev":"FLO", "descrip":"The College of Agriculture Building, designed in Collegiate Gothic style by architect William A. Edwards,  opened in 1912. Detailed reliefs representing cornucopias decorate its arched entrances. The Agriculture Building was later named for Major Wilbur L. Floyd, an assistant dean of the College of Agriculture, 1915-38. Dr. Floyd was a professor of agriculture, biology, and physics.  -  Used for storage for many years,Floyd Hall was renovated in 1992 with the funding support of UF benefactor Ben Hill Griffin, Jr., and the building was renamed in his honor.  -  Griffin-Floyd Hall was added to the National Register in 1979.  It is a part of the University of Florida Campus Historic District, a collection of buildings added to the National Register as an historic district in 1989.    ", "url":""},{"bldgID": "10", "lat":29.64655, "lng":-82.34208, "bldg":"0011", "cname":"BROWARD HALL", "oname":"ANNIE D. BROWARD HALL", "add1":"680 BROWARD DR", "abbrev":"BRO", "descrip":"Broward Hall is named in memory of Annie Douglass Broward (1867-1953), Governor Napoleon Bonaparte Broward`s wife. Originally built to house women, Broward Hall went co-ed in 1972, the last women`s residence to do so. Guy Fulton designed Broward Hall and construction was completed at a cost of $1.66 million.  Broward Hall is part of the the Broward/ Rawlings/ Yulee Residence Area. It`s near an outdoor swimming pool, a series of tennis courts, and a large grassy area dubbed `Broward Beach` where students and residents meet to enjoy the sun. In close proximity is the recently-constructed Broward Dining Facility. Broward Hall is a Faculty-in-Residence Community. Designed to bring faculty and students together beyond the classroom, the Faculty-in-Residence Program at Broward promotes interaction between residents and an on-site faculty member.", "url":""},{"bldgID": "11", "lat":29.64925, "lng":-82.34448, "bldg":"0012", "cname":"ROLFS HALL", "oname":"PETER ROLFS HALL", "add1":"341 BUCKMAN DR", "abbrev":"ROL", "descrip":"Rolfs Hall was completed in 1927. Originally called the Horticulture Building, it was designed by campus architect Rudolph Weaver in the Collegiate Gothic style that characterized other UF buildings at that time. A striking parapet with alternating quatrefoils and lozenges is among the building`s decorative details.   In addition to classrooms, the Horticulture Building housed the State Plant Board, the Agricultural Extension Service, the Agricultural Experiment Station, and the extensive UF Herbarium.  In the 1950s, the Rolfs Hall was named for Peter Henry Rolfs, a dean of the College of Agriculture and Director of  the Agricultural Experiment Station.  In the late 1990s an extensive, exterior stairwell was added at the south.  -  Rolfs Hall was added to the National Register in 1986.  It is a part of the University of Florida Campus Historic District, a collection of buildings added to the National Register as an historic district in 1989.    ", "url":""},{"bldgID": "12", "lat":29.64909, "lng":-82.34508, "bldg":"0013", "cname":"NEWELL HALL", "oname":"WILMON E. NEWELL HALL", "add1":"1700 STADIUM RD", "abbrev":"NEW", "descrip":"The Florida Agricultural Experiment Station moved to the University of Florida in 1905 when its host school, Florida Agricultural College in Lake City, was abolished.  In 1910, a new building opened on UF`s Stadium Road as the home of the Experiment Station whose work had been carried out in Thomas Hall.  The building`s  surrounding grounds were landscaped to provide hands-on research for students. The Experiment Station building was designed in Collegiate Gothic style by William Edwards and built by the J. J. Cain Company.   The building was renovated in 1943 under the direction of Rudolph Weaver. In 1944, it was named for noted entomologist Dr. Wilmon E. Newell, a director of the Station and provost for Agriculture.  Newell Hall was added to the National Register in 1979.  It  is also a  part of the University of Florida Campus Historic District, a collection of buildings added to the National Register as an historic district in 1989.  ", "url":""},{"bldgID": "13", "lat":29.65045, "lng":-82.34689, "bldg":"0014", "cname":"USTLER HALL", "oname":"KATHRYN CHICONE USTLER HALL", "add1":"162 FLETCHER DR", "abbrev":"UST", "descrip":"The 87-year-old facility has been transformed into a state-of-the-art, three-level academic structure. Built in 1919, the building fell into disuse in 1979 but was saved from demolition in 1988 when it was granted protection under the National Register of Historic Places. It was transformed into a 14,700 square-foot academic treasure. The restoration process began in 2004, and Women`s Studies moved into the facility in July 2006.", "url":""},{"bldgID": "14", "lat":29.65089, "lng":-82.345, "bldg":"0015", "cname":"BUCKMAN HALL", "oname":"HENRY H. BUCKMAN HALL", "add1":"132 BUCKMAN DR", "abbrev":"BUC", "descrip":"Buckman Hall was completed in 1907 and served originally as a multipurpose facility.  It has been used exclusively as a residence hall since the late 1940s.   Buckman Hall was designed in Collegiate Gothic style by architect William A. Edwards.   Decorative features include a relief, over each bayed entrance, representing the anguished scholar.   Buckman Hall was added to the National Register in 1974.  It is a part of the University of Florida Campus Historic District, a collection of buildings added to the National Register as an historic district in 1989.    ", "url":""},{"bldgID": "15", "lat":29.65076, "lng":-82.34552, "bldg":"0016", "cname":"SLEDD HALL", "oname":"ANDREW SLEDD HALL", "add1":"191 FLETCHER DR", "abbrev":"SLD", "descrip":"Known originally as the New Dormitory, this building opened in 1929 and connected at its southeast corner to Thomas Hall.  In the late 1930s, New Dormitory was renamed for Dr. Andrew Sledd, UF`s first president (1905-1909).  Sledd Hall was renovated in 1984.  Architect Rudolph Weaver designed Sledd Hall in the Collegiate Gothic style following the the tradition established by William Edwards, his predecessor as architect for the state`s Board of Control.  It was constructed by Sutton Brothers Company.  Decorating its exterior surface are numerous cast-concrete replicas of the seals of great European universities.   Sledd Hall is a part of the University of Florida Campus Historic District, a collection of buildings added to the National Register as an historic district in 1989.  ", "url":""},{"bldgID": "16", "lat":29.65119, "lng":-82.346, "bldg":"0017", "cname":"THOMAS HALL", "oname":"WILLIAM R. THOMAS HALL", "add1":"133 FLETCHER DR", "abbrev":"THO", "descrip":"Thomas Hall, located on Fletcher Drive, was designed as a multipurpose building.  When it opened in 1906, this building provided space for offices, classrooms, dining, and housing.  It was renovated in 1984, and today it is used exclusively for student housing.  The building was named for Major William R. Thomas who successfully lobbied for siting the University of Florida in Gainesville.  Designed in Collegiate Gothic style by architect William A. Edwards, Thomas Hall was constructed by the H. T. Hadlow Company.   Thomas Hall was added to the National Register of Historic Places in 1974.  It is a part of the University of Florida Campus Historic District, a collection of buildings added to the National Register as an historic district in 1989. ", "url":""},{"bldgID": "17", "lat":29.64952, "lng":-82.34659, "bldg":"0018", "cname":"INFIRMARY", "oname":"INFIRMARY", "add1":"280 FLETCHER DR", "abbrev":"INF", "descrip":"The Infirmary (Student Health Center), designed by Rudolph Weaver,  opened in 1931.  A nurses` residence designed by Guy Fulton was added to the south of the original structure in 1947.  In 1975 a pharmacy was added to the west of the building.  Since 1983, the Infirmary has served as an outpatient clinic for UF`s student population", "url":""},{"bldgID": "18", "lat":29.65025, "lng":-82.3457, "bldg":"0019", "cname":"ACADEMIC ADVISING CENTER (AAC)", "oname":"FARRIOR HALL (ACAD. ADVISEMENT)", "add1":"205 FLETCHER DR", "abbrev":"AAF", "descrip":"", "url":"http://www.advising.ufl.edu/"},{"bldgID": "19", "lat":29.64645, "lng":-82.33985, "bldg":"0020", "cname":"REID HALL", "oname":"MARY M. REID HALL", "add1":"1316 MUSEUM RD ", "abbrev":"REID", "descrip":"Reid Hall is named for Mary Martha Reid (1812-94) who, during the US Civil War, established a hospital in Richmond, VA, to care for the sick and wounded from the Florida regiments. Reid Hall is part of the the Broward/ Rawlings/ Yulee Residence Area. It`s near an outdoor swimming pool, a series of tennis courts, and a large grassy area dubbed `Broward Beach` where students and residents meet to enjoy the sun. In close proximity is the Broward Dining Facility.", "url":""},{"bldgID": "20", "lat":29.64938, "lng":-82.34727, "bldg":"0021", "cname":"FLORIDA GYMNASIUM", "oname":"FLORIDA GYMNASIUM", "add1":"1864 STADIUM RD", "abbrev":"FLG", "descrip":"", "url":""},{"bldgID": "21", "lat":29.64908, "lng":-82.34167, "bldg":"0022", "cname":"CARLETON AUDITORIUM", "oname":"WILLIAM G. CARLETON AUDITORIUM", "add1":"1475 UNION RD", "abbrev":"CAR", "descrip":"Named for William G. Carlton", "url":""},{"bldgID": "22", "lat":29.64856, "lng":-82.35112, "bldg":"0023", "cname":"VAN FLEET HALL", "oname":"GEN. JAMES A. VAN FLEET HALL", "add1":"2074 STADIUM RD", "abbrev":"VAN", "descrip":"Named for Major James A. Van Fleet", "url":""},{"bldgID": "23", "lat":29.64835, "lng":-82.34843, "bldg":"0024", "cname":"WEIL HALL", "oname":"JOSEPH WEIL HALL", "add1":"1949 STADIUM RD", "abbrev":"WEIL", "descrip":"", "url":""},{"bldgID": "24", "lat":29.64815, "lng":-82.3485, "bldg":"0025", "cname":"CHILLED WATER PLANT #1 (WEIL)", "oname":"CHILLED WATER PLANT #1", "add1":"449 GALE LEMERAND DR", "abbrev":"CWP1", "descrip":"", "url":""},{"bldgID": "25", "lat":29.64944, "lng":-82.33989, "bldg":"0026", "cname":"TIGERT HALL", "oname":"John J. Tigert Hall", "add1":"300 SW 13TH ST  ", "abbrev":"TIG", "descrip":"Tigert Hall was named in honor of John J. Tigert, president of UF from 1928-1947. It was designed by architect Jefferson Hamilton in a modified Collegiate Gothic style to function as the university's main administration building. The building houses the offices of the university president and a number of vice presidents. Tigert Hall became a contributing property in the University of Florida Campus Historic District in 2008; the historic district had been previously added to the National Register of Historic Places in 1989.", "url":""},{"bldgID": "26", "lat":29.64425, "lng":-82.3429, "bldg":"0027", "cname":"UNIVERSITY POLICE", "oname":"UNIVERSITY POLICE", "add1":"1555 MUSEUM RD", "abbrev":"UPD", "descrip":"The WRUF Radio Station building opened in 1928.  It was built according to the designs of Rudolph Weaver in the Tudor Revival style, a manner quite different from the Collegiate Style characterizing other campus buildings of that time period. The radio station moved in 1957 to new quarters and at that time the building became headquarters for the University of Florida Police Department (UFPD). This building was added to the National Register of Historic Places in 1989.", "url":""},{"bldgID": "27", "lat":29.65089, "lng":-82.34412, "bldg":"0028", "cname":"CHEMISTRY LABORATORY", "oname":"CHEMISTRY LABORATORY", "add1":"125 BUCKMAN DR", "abbrev":"CLB", "descrip":"", "url":""},{"bldgID": "28", "lat":29.65089, "lng":-82.3411, "bldg":"0029", "cname":"STUZIN HALL", "oname":"DAVID STUZIN HALL", "add1":"1454 UNION RD", "abbrev":"STZ", "descrip":"Named for David Stuzin (interior dedication plaque dated Mat 1979", "url":""},{"bldgID": "29", "lat":29.64783, "lng":-82.34738, "bldg":"0030", "cname":"WEIMER HALL", "oname":"RAE O. WEIMER HALL", "add1":"1885 STADIUM RD", "abbrev":"WEIM", "descrip":"Weimer Hall is considered one of the finest educational journalism buildings in the nation. The school moved into the $6.3 million building in 1980, and added the $3.1 million, Alvin G. Flanagan Telecommunication Wing in 1990. In addition to 20 classrooms and laboratories, the 125,000 square-foot Weimer Hall houses four working newsrooms, four radio stations, two television stations, a 110-seat library, research facilities, a 250-seat auditorium and 11 satellite ground stations.  ", "url":"http://www.jou.ufl.edu/"},{"bldgID": "30", "lat":29.65017, "lng":-82.34163, "bldg":"0031", "cname":"CRISER HALL", "oname":"MARSHALL M. CRISER HALL", "add1":"1478 UNION RD", "abbrev":"SSB", "descrip":"Named for Marshall M. Criser", "url":""},{"bldgID": "31", "lat":29.64818, "lng":-82.34558, "bldg":"0032", "cname":"HUB", "oname":"HUB", "add1":"1765 STADIUM RD", "abbrev":"HUB", "descrip":"", "url":"http://helpdesk.ufl.edu/"},{"bldgID": "32", "lat":29.64229, "lng":-82.34714, "bldg":"0033", "cname":"ENGINEERING BUILDING", "oname":"ENGINEERING", "add1":"1064 CENTER DR", "abbrev":"NEB", "descrip":"The $19-million New Engineering Building was dedicated in February 1997 after two years of construction. With 135,000 gross square feet, the building houses classroom, office and laboratory space for the departments of Environmental Engineering Sciences, Aerospace Engineering, Mechanics and Engineering Sciences, and Electrical and Computer Engineering.", "url":""},{"bldgID": "33", "lat":29.64908, "lng":-82.34556, "bldg":"0034", "cname":"U. F. INFORMATION", "oname":"U. F. INFORMATION", "add1":"357 FLETCHER DR", "abbrev":"INFO", "descrip":"", "url":""},{"bldgID": "34", "lat":29.64921, "lng":-82.34554, "bldg":"0035", "cname":"COMPUTER POWER SUPPLY", "oname":"COMPUTER POWER SUPPLY", "add1":"343 FLETCHER DR", "abbrev":"", "descrip":"", "url":""},{"bldgID": "35", "lat":29.65263, "lng":-82.34153, "bldg":"0036", "cname":"S.U.S. PRESS OFFICES", "oname":"UNIVERSITY PRESS", "add1":"15 NW 15TH STREET", "abbrev":"FLAP", "descrip":"", "url":""},{"bldgID": "36", "lat":29.65265, "lng":-82.34117, "bldg":"0037", "cname":"S.U.S. PRESS", "oname":"S.U.S. PRESS", "add1":"15 NW 15TH STREET", "abbrev":"FLAP", "descrip":"", "url":""},{"bldgID": "37", "lat":29.64893, "lng":-82.34572, "bldg":"0038", "cname":"BRYANT SPACE SCIENCE CENTER", "oname":"T.W. BRYANT SPACE SCIENCE CTR", "add1":"1772 STADIUM RD", "abbrev":"BRT", "descrip":"Named for Thomas Bryant", "url":""},{"bldgID": "38", "lat":29.64622, "lng":-82.34035, "bldg":"0039", "cname":"YULEE HALL", "oname":"NANCY W. YULEE HALL", "add1":"1358 MUSEUM RD", "abbrev":"YUL", "descrip":"Yulee Hall is dedicated to the memory of Nancy Wickliff Yulee (1826-1885) whose daughter, Florida Yulee Neff gave generously to the University. Yulee Hall is part of Yulee Residence Area near to an outdoor swimming pool, a series of tennis courts, and a large grassy area dubbed `Broward Beach` where students and residents meet to enjoy the sun. In close proximity is the Broward Dining Facility. Yulee is home to the Global Living Learning Community.  ", "url":""},{"bldgID": "39", "lat":29.6493, "lng":-82.34552, "bldg":"0040", "cname":"N.E.R.D.C. GENERATOR", "oname":"NERDC GENERATOR", "add1":"331 FLETCHER DR", "abbrev":"", "descrip":"", "url":""},{"bldgID": "40", "lat":29.64677, "lng":-82.34031, "bldg":"0041", "cname":"MALLORY HALL", "oname":"ANGELA MALLORY HALL", "add1":"1367 INNER RD", "abbrev":"MAL", "descrip":"Mallory Hall memorializes Angela Mallory (1815-1901), wife of Confederate Secretary of the Navy and U.S. Senator from Florida Stephen R. Mallory. Near Mallory Hall is an outdoor swimming pool, a series of tennis courts, and a large grassy area dubbed `Broward Beach` where students and residents meet to enjoy the sun. In close proximity is the recently-constructed Broward Dining Facility.  ", "url":""},{"bldgID": "41", "lat":29.64831, "lng":-82.34435, "bldg":"0042", "cname":"COMPUTER SCIENCES/ENGINEERING", "oname":"COMPUTER SCIENCES/ENGINEERING", "add1":"432 NEWELL DR", "abbrev":"CSE", "descrip":"The CSE building houses the Department of Computer and Information Sciences (CIS). A large computer lab on the main floor contains more than 200 computers for student use. There is also an electronic classroom equipped with computers and printers. Decorating the southwest corner of the complex is the sculpture `Alachua,` more commonly known on campus as the `French Fries.`", "url":"http://www.cise.ufl.edu/"},{"bldgID": "42", "lat":29.64794, "lng":-82.34394, "bldg":"0043", "cname":"MARSTON SCIENCE LIBRARY", "oname":"ROBERT MARSTON SCIENCE LIBRARY", "add1":"444 NEWELL DR", "abbrev":"MSL", "descrip":"Marston Science Library houses the University Libraries` collections of physical, life and earth sciences, as well as engineering, agriculture and mathematics. The building opened February 1987 and is named for former UF President Robert Marston. This library serves over a million people each year.   Located on the lower floor of this building, the Map and Imagery Library provides maps, aerial photographs, satellite images, atlases and a unique collection of NASA Kennedy Space Center film rolls.  Special Feature: Alachua, by John R. Henry (outdoor sculpture)", "url":"http://web.uflib.ufl.edu/msl/"},{"bldgID": "43", "lat":29.64258, "lng":-82.36529, "bldg":"0044", "cname":"GREENHOUSE, GROUNDS", "oname":"GREENHOUSE, GROUNDS", "add1":"", "abbrev":"", "descrip":"", "url":""},{"bldgID": "44", "lat":29.64797, "lng":-82.35139, "bldg":"0045", "cname":"TOLBERT HALL", "oname":"BENJAMIN A. TOLBERT HALL", "add1":"2087 STADIUM RD", "abbrev":"TOL", "descrip":"Tolbert Hall is dedicated to the memory of former UF Professor of Education Benjamin A. Tolbert, who also served as Dean of Freshmen (later Dean of Students) from 1928 until his death in 1937. Tolbert Hall is part of the Tolbert Area, which is central and across the street to the south of UF`s collegiate baseball stadium, soccer field, track, indoor activities building (O`Connell Center), and Ben Hill Griffin Football Stadium. Architect Guy Fulton designed Tolbert Hall, and it opened in 1950 at a cost of $562,295.  Tolbert Hall is a Faculty-in-Residence Community. In an effort to bring faculty and students together beyond the classroom, the Faculty-in-Residence Program promotes interaction between students and an on-site faculty member. The faculty-in-residence lives in an apartment in Tolbert and shares the residence hall experience with students. The faculty-in-residence provides academic advising and helps plan and implement special programs.  ", "url":""},{"bldgID": "45", "lat":29.64254, "lng":-82.36498, "bldg":"0046", "cname":"GREENHOUSE, GROUNDS", "oname":"GREENHOUSE (GROUNDS)", "add1":"", "abbrev":"", "descrip":"", "url":""},{"bldgID": "46", "lat":29.63912, "lng":-82.35604, "bldg":"0047", "cname":"GREENHOUSE, PLANT PATHOLOGY", "oname":"GREENHOUSE, PLANT PATHOLOGY", "add1":"1447 SABLE PALM DR", "abbrev":"GP1", "descrip":"", "url":""},{"bldgID": "47", "lat":29.6476, "lng":-82.34855, "bldg":"0048", "cname":"CWP #1 WEIL COOLING TOWERS", "oname":"CWP #1 WEIL COOLING TOWERS", "add1":"503 GALE LEMERAND DR", "abbrev":"", "descrip":"", "url":""},{"bldgID": "48", "lat":29.64942, "lng":-82.34115, "bldg":"0049", "cname":"CWP #3 WALKER COOLING TOWERS", "oname":"CWP #3 WALKER COOLING TOWERS", "add1":"1453 UNION RD", "abbrev":"", "descrip":"", "url":""},{"bldgID": "49", "lat":29.64789, "lng":-82.35075, "bldg":"0050", "cname":"NORTH HALL", "oname":"NORTH HALL", "add1":"2063 STADIUM RD", "abbrev":"NOR", "descrip":"", "url":""},{"bldgID": "50", "lat":29.64415, "lng":-82.34237, "bldg":"0051", "cname":"UNIVERSITY POLICE ANNEX #1", "oname":"UNIVERSITY POLICE ANNEX #1", "add1":"1521 MUSEUM RD", "abbrev":"UPD1", "descrip":"", "url":""},{"bldgID": "51", "lat":29.64747, "lng":-82.35114, "bldg":"0052", "cname":"RIKER  HALL", "oname":"HAROLD C. RIKER HALL", "add1":"2069 STADIUM RD", "abbrev":"RIK", "descrip":"Named for Harold C. Riker in 2000", "url":""},{"bldgID": "52", "lat":29.64705, "lng":-82.35073, "bldg":"0053", "cname":"WEAVER HALL", "oname":"RUDOLF WEAVER HALL", "add1":"562 GALE LEMERAND DR", "abbrev":"WEA", "descrip":"", "url":""},{"bldgID": "53", "lat":29.65073, "lng":-82.34011, "bldg":"0054", "cname":"GERSON HALL", "oname":"GERSON HALL", "add1":"1368 UNION RD", "abbrev":"GER", "descrip":"", "url":""},{"bldgID": "54", "lat":29.63912, "lng":-82.35597, "bldg":"0055", "cname":"GREENHOUSE, PLANT PATHOLOGY", "oname":"GREENHOUSE, PLANT PATHOLOGY", "add1":"1447 SABLE PALM DR", "abbrev":"GP2", "descrip":"", "url":""},{"bldgID": "55", "lat":29.63906, "lng":-82.35654, "bldg":"0056", "cname":"IFAS RESTROOM", "oname":"IFAS RESTROOM", "add1":"", "abbrev":"", "descrip":"", "url":""},{"bldgID": "56", "lat":29.63804, "lng":-82.35609, "bldg":"0057", "cname":"FACILITIES OFFICE", "oname":"FACILITIES OFFICE", "add1":"2307 MOWRY RD", "abbrev":"NONE", "descrip":"", "url":""},{"bldgID": "57", "lat":29.63863, "lng":-82.35651, "bldg":"0058", "cname":"IFAS COMM SRVC STOR", "oname":"IFAS COMM SERVICES STORAGE", "add1":"1494 SABLE PALM DR", "abbrev":"NONE", "descrip":"", "url":""},{"bldgID": "58", "lat":29.64186, "lng":-82.34321, "bldg":"0059", "cname":"MCKNIGHT BRAIN INSTITUTE", "oname":"MCKNIGHT BRAIN INSTITUTE", "add1":"1149 NEWELL DR", "abbrev":"MBI", "descrip":"The Evelyn F. and William L. McKnight Brain Institute of the University of Florida (MBI-UF) is one of the world`s largest research institutions devoted to the challenges resulting from brain and nervous system disorders. The MBI-UF`s research and educational programs incorporate over 300 faculty from 57 academic departments and 11 colleges.", "url":"http://www.mbi.ufl.edu/"},{"bldgID": "59", "lat":29.63932, "lng":-82.35683, "bldg":"0060", "cname":"IFAS COMMUNICATION", "oname":"IFAS COMMUNICATION SERVICES", "add1":"1408 SABLE PALM DR", "abbrev":"NONE", "descrip":"", "url":""},{"bldgID": "60", "lat":29.64208, "lng":-82.34439, "bldg":"0062", "cname":"HEALTH CENTER ANNEX #1", "oname":"HEALTH CENTER ANNEX NO. 1", "add1":"1104 NEWELL DR", "abbrev":"HCX1", "descrip":"", "url":""},{"bldgID": "61", "lat":29.6385, "lng":-82.35693, "bldg":"0063", "cname":"IFAS OFFICE / LAB", "oname":"IFAS OFFICE / LAB", "add1":"1501 DATE PALM RD", "abbrev":"", "descrip":"", "url":""},{"bldgID": "62", "lat":29.6504, "lng":-82.3406, "bldg":"0064", "cname":"HOUGH HALL", "oname":"HOUGH HALL", "add1":"1404 UNION RD", "abbrev":"HGS", "descrip":"", "url":""},{"bldgID": "63", "lat":29.64303, "lng":-82.34904, "bldg":"0067", "cname":"OBSERVATORY", "oname":"OBSERVATORY", "add1":"998 SWEETWATER DR", "abbrev":"OBS", "descrip":"", "url":""},{"bldgID": "64", "lat":29.63317, "lng":-82.36115, "bldg":"0068", "cname":"RESEARCH LABORATORY", "oname":"RESEARCH LABORATORY", "add1":"2043 IFAS RESEARCH DR", "abbrev":"RL1", "descrip":"", "url":""},{"bldgID": "65", "lat":29.64274, "lng":-82.34617, "bldg":"0070", "cname":"NANOSCALE RESEARCH", "oname":"NANOSCALE RESEARCH FACILITY", "add1":"1041 CENTER DR", "abbrev":"NANO", "descrip":"", "url":""},{"bldgID": "66", "lat":29.63349, "lng":-82.36101, "bldg":"0071", "cname":"FIELD SUPPORT", "oname":"FIELD SUPPORT", "add1":"2039 IFAS RESEARCH DR", "abbrev":"FS1", "descrip":"", "url":""},{"bldgID": "67", "lat":29.64941, "lng":-82.34553, "bldg":"0072", "cname":"PUGH HALL", "oname":"PUGH HALL", "add1":"296 BUCKMAN DR", "abbrev":"PUGH", "descrip":"", "url":""},{"bldgID": "68", "lat":29.64922, "lng":-82.3444, "bldg":"0073", "cname":"ROLFS ELEVATOR EQUIPMENT BLDG", "oname":"ROLFS ELEVATOR EQUIPMENT BLDG", "add1":"", "abbrev":"REE", "descrip":"", "url":""},{"bldgID": "69", "lat":29.64007, "lng":-82.35977, "bldg":"0074", "cname":"GREENHOUSE", "oname":"GREENHOUSE", "add1":"2475 NO NAME RD", "abbrev":"NONE", "descrip":"", "url":""},{"bldgID": "70", "lat":29.63378, "lng":-82.35054, "bldg":"0075", "cname":"CERC", "oname":"Veterinary Small Animal Hospital", "add1":"2089 SW 16TH AV", "abbrev":"CERC", "descrip":"", "url":""},{"bldgID": "71", "lat":29.64924, "lng":-82.35615, "bldg":"0077", "cname":"UNIVERSITY WOMENS CLUB", "oname":"UNIVERSITY WOMENS CLUB", "add1":"324 WOODLAWN DR", "abbrev":"UWC", "descrip":"", "url":""},{"bldgID": "72", "lat":29.63795, "lng":-82.35641, "bldg":"0078", "cname":"PLANT DISEASE CLINIC", "oname":"PLANT DISEASE CLINIC", "add1":"2311 MOWRY RD", "abbrev":"PDC", "descrip":"", "url":""},{"bldgID": "73", "lat":29.74371, "lng":-82.26596, "bldg":"0079", "cname":"RESIDENCE", "oname":"RESIDENCE", "add1":"9800 N CR 255", "abbrev":"NONE", "descrip":"", "url":""},{"bldgID": "74", "lat":29.65189, "lng":-82.35419, "bldg":"0080", "cname":"CATERING SERVICE BUILDING", "oname":"CATERING SERVICE BUILDING", "add1":"", "abbrev":"", "descrip":"", "url":""},{"bldgID": "75", "lat":29.64253, "lng":-82.36933, "bldg":"0081", "cname":"COUNSELING AND WELLNESS", "oname":"COUNSELING AND WELLNESS CENTER", "add1":"3190 RADIO RD", "abbrev":"NONE", "descrip":"", "url":""},{"bldgID": "76", "lat":29.64009, "lng":-82.34847, "bldg":"0082", "cname":"COGENERATION PLANT", "oname":"COGENERATION PLANT", "add1":"1928 MOWRY RD", "abbrev":"NONE", "descrip":"", "url":""},{"bldgID": "77", "lat":29.64423, "lng":-82.36276, "bldg":"0083", "cname":"BAT HOUSE 1", "oname":"BAT HOUSE 1", "add1":"", "abbrev":"NONE", "descrip":"", "url":""},{"bldgID": "78", "lat":29.64423, "lng":-82.3629, "bldg":"0084", "cname":"BAT HOUSE 2", "oname":"BAT HOUSE 2", "add1":"", "abbrev":"NONE", "descrip":"", "url":""},{"bldgID": "79", "lat":29.63934, "lng":-82.3561, "bldg":"0085", "cname":"AGRONOMY PHYSIOLOGY LAB", "oname":"AGRONOMY PHYSIOLOGY LAB", "add1":"1447 SABLE PALM DR", "abbrev":"PHYL", "descrip":"", "url":""},{"bldgID": "80", "lat":29.64628, "lng":-82.34566, "bldg":"0087", "cname":"TEACHING SUPPORT", "oname":"TEACHING SUPPORT", "add1":"1736 MCCARTY DR", "abbrev":"NONE", "descrip":"", "url":""},{"bldgID": "81", "lat":29.63919, "lng":-82.35597, "bldg":"0088", "cname":"GREENHOUSE, PLANT PATHOLOGY", "oname":"GREENHOUSE, PLANT PATHOLOGY", "add1":"1447 SABLE PALM DR", "abbrev":"GP3", "descrip":"", "url":""},{"bldgID": "82", "lat":29.63919, "lng":-82.35604, "bldg":"0090", "cname":"GREENHOUSE, PLANT PATHOLOGY", "oname":"GREENHOUSE, PLANT PATHOLOGY", "add1":"1447 SABLE PALM DR", "abbrev":"GP4", "descrip":"", "url":""},{"bldgID": "83", "lat":29.64993, "lng":-82.3522, "bldg":"0091", "cname":"OCONNELL STORAGE", "oname":"OCONNELL CTR STORAGE", "add1":"2132 STADIUM RD", "abbrev":"", "descrip":"", "url":""},{"bldgID": "84", "lat":29.6439, "lng":-82.34979, "bldg":"0092", "cname":"PHYSICS BUILDING", "oname":"PHYSICS BUILDING", "add1":"2001 MUSEUM RD", "abbrev":"NPB", "descrip":"", "url":""},{"bldgID": "85", "lat":29.64999, "lng":-82.34726, "bldg":"0093", "cname":"FLORIDA POOL PLANT", "oname":"FLORIDA OUTDOOR POOL", "add1":"150 FLETCHER DR", "abbrev":"POOL", "descrip":"", "url":""},{"bldgID": "86", "lat":29.6494, "lng":-82.35117, "bldg":"0094", "cname":"OCONNELL CENTER", "oname":"STEPHEN C. OCONNELL CENTER", "add1":"250 GALE LEMERAND DR", "abbrev":"SOC", "descrip":"Named for Stephen C. O`Connell Special Features: 12,000-seat interior", "url":"http://www.oconnellcenter.ufl.edu/"},{"bldgID": "87", "lat":29.64851, "lng":-82.35157, "bldg":"0095", "cname":"SWIM/DIVE FACILITY", "oname":"WAYNE & JIMMIE CARSE SWIM/DIVE", "add1":"2092 STADIUM RD", "abbrev":"SWIM", "descrip":"", "url":""},{"bldgID": "88", "lat":29.63782, "lng":-82.36308, "bldg":"0096", "cname":"STORAGE BLDG", "oname":"STORAGE BLDG", "add1":"2668 HULL RD", "abbrev":"NONE", "descrip":"", "url":""},{"bldgID": "89", "lat":29.63927, "lng":-82.35593, "bldg":"0097", "cname":"EQUIPMENT STORAGE", "oname":"EQUIPMENT STORAGE", "add1":"1447 SABLE PALM DR", "abbrev":"ST1", "descrip":"", "url":""},{"bldgID": "90", "lat":29.64871, "lng":-82.35079, "bldg":"0098", "cname":"OCONNELL WARM-UP POOL PLANT", "oname":"OCONNELL WARMUP POOL PLANT", "add1":"2048 STADIUM RD", "abbrev":"", "descrip":"", "url":""},{"bldgID": "91", "lat":29.64804, "lng":-82.34643, "bldg":"0099", "cname":"MICROKELVIN LABORATORY", "oname":"MICROKELVIN LABORATORY", "add1":"1819 STADIUM RD", "abbrev":"MCKL", "descrip":"", "url":""},{"bldgID": "92", "lat":29.64791, "lng":-82.34654, "bldg":"0100", "cname":"WILLIAMSON HALL", "oname":"ROBERT C. WILLIAMSON HALL", "add1":"1843 STADIUM RD", "abbrev":"WM", "descrip":"", "url":""},{"bldgID": "93", "lat":29.64685, "lng":-82.33812, "bldg":"0101", "cname":"NORMAN HALL", "oname":"JAMES W. NORMAN HALL", "add1":"1221 SW 5TH AV", "abbrev":"NRN", "descrip":"Named for James W. Norman in 1958", "url":""},{"bldgID": "94", "lat":29.64625, "lng":-82.33799, "bldg":"0102", "cname":"NORMAN GYM", "oname":"JAMES W. NORMAN GYM", "add1":"624 SW 12TH ST", "abbrev":"NRG", "descrip":"", "url":""},{"bldgID": "95", "lat":29.64658, "lng":-82.33755, "bldg":"0103", "cname":"NORMAN HALL ADDITION", "oname":"JAMES W. NORMAN HALL ADDITION", "add1":"618 SW 12TH ST", "abbrev":"NRNA", "descrip":"", "url":""},{"bldgID": "96", "lat":29.65297, "lng":-82.34294, "bldg":"0105", "cname":"105 CLASSROOM BUILDING", "oname":"THE 105 CLASSROOM BUILDING", "add1":"", "abbrev":"CBD", "descrip":"", "url":""},{"bldgID": "97", "lat":29.63795, "lng":-82.35558, "bldg":"0106", "cname":"OFFICE BUILDING", "oname":"OFFICE BUILDING", "add1":"2295 MOWRY RD", "abbrev":"NONE", "descrip":"", "url":""},{"bldgID": "98", "lat":29.63845, "lng":-82.35733, "bldg":"0107", "cname":"FIELD LAB, FORESTRY", "oname":"FIELD LAB, FORESTRY", "add1":"1502 DATE PALM RD", "abbrev":"FF1", "descrip":"", "url":""},{"bldgID": "99", "lat":29.64177, "lng":-82.3675, "bldg":"0108", "cname":"GREENHOUSE (FLMNH)", "oname":"GREENHOUSE, FLMNH", "add1":"", "abbrev":"", "descrip":"", "url":""},{"bldgID": "100", "lat":29.64179, "lng":-82.36774, "bldg":"0109", "cname":"FLMNH POLE BARN", "oname":"FLMNH POLE BARN", "add1":"3073 RADIO RD", "abbrev":"", "descrip":"", "url":""},{"bldgID": "101", "lat":29.64764, "lng":-82.34262, "bldg":"0110", "cname":"STEINBRENNER ", "oname":"STEINBRENNER BAND HALL", "add1":"1556 INNER RD", "abbrev":"SBH", "descrip":"", "url":""},{"bldgID": "102", "lat":29.64995, "lng":-82.34508, "bldg":"0111", "cname":"DAUER HALL", "oname":"MANNING J. DAUER HALL", "add1":"228 BUCKMAN DR", "abbrev":"DAU", "descrip":"Named for Manning Dauer, in 1975", "url":""},{"bldgID": "103", "lat":29.64894, "lng":-82.34528, "bldg":"0113", "cname":"GREENHOUSE, SOILS", "oname":"GREENHOUSE, SOILS", "add1":"1738 STADIUM RD", "abbrev":"", "descrip":"", "url":""},{"bldgID": "104", "lat":29.64147, "lng":-82.36778, "bldg":"0114", "cname":"LAB OF SE ARCHEOLOGY", "oname":"LAB OF SOUTHEASTERN ARCHEOLOGY", "add1":"3097 RADIO RD", "abbrev":"NONE", "descrip":"", "url":""},{"bldgID": "105", "lat":29.63837, "lng":-82.35659, "bldg":"0116", "cname":"IFAS COMM SERVICES", "oname":"IFAS COMMUNICATION SERVICES", "add1":"2322 MOWRY RD", "abbrev":"NONE", "descrip":"", "url":""},{"bldgID": "106", "lat":29.64823, "lng":-82.34289, "bldg":"0117", "cname":"MUSIC BUILDING", "oname":"MUSIC BUILDING", "add1":"435 NEWELL DR", "abbrev":"MUB", "descrip":"", "url":"http://www.arts.ufl.edu/music/"},{"bldgID": "107", "lat":29.63722, "lng":-82.35365, "bldg":"0118", "cname":"VET MED ISOLATION BARN", "oname":"VET MED ISOLATION BARN", "add1":"2195 MOWRY RD", "abbrev":"VMI1", "descrip":"", "url":""},{"bldgID": "108", "lat":29.74393, "lng":-82.2648, "bldg":"0119", "cname":"ANIMAL SCI FEED STORAGE (BRU)", "oname":"ANIMAL SCI FEED STORAGE (BRU)", "add1":"9800 N CR 255", "abbrev":"", "descrip":"", "url":""},{"bldgID": "109", "lat":29.64734, "lng":-82.34404, "bldg":"0120", "cname":"AQUATIC FOOD PROD. PILOT PLANT", "oname":"AQUATIC FOOD PROD. PILOT PLANT", "add1":"520 NEWELL DR", "abbrev":"AFPP", "descrip":"", "url":""},{"bldgID": "110", "lat":29.53517, "lng":-82.305, "bldg":"0121", "cname":"WAUBURG NORTH PICNIC SHELTER", "oname":"WAUBURG NORTH PICNIC SHELTER", "add1":"US 441 SOUTH", "abbrev":"", "descrip":"", "url":""},{"bldgID": "111", "lat":29.53366, "lng":-82.30545, "bldg":"0123", "cname":"WAUBURG NORTH BOATHOUSE ", "oname":"WAUBURG NORTH BOATHOUSE ", "add1":"US 441 SOUTH", "abbrev":"", "descrip":"", "url":""},{"bldgID": "112", "lat":29.63939, "lng":-82.35728, "bldg":"0124", "cname":"FACILITIES OFFICE", "oname":"FACILITIES OFFICE", "add1":"1390 DATE PALM RD", "abbrev":"NONE", "descrip":"", "url":""},{"bldgID": "113", "lat":29.64946, "lng":-82.35707, "bldg":"0125", "cname":"LINDER TENNIS STADIUM", "oname":"SCOTT LINDER TENNIS STADIUM", "add1":"2337 SW 2ND AV  ", "abbrev":"VTS", "descrip":"Named for R. Scott Linder", "url":""},{"bldgID": "114", "lat":29.62811, "lng":-82.35409, "bldg":"0126", "cname":"IFAS PUMP HOUSE", "oname":"IFAS PUMP HOUSE", "add1":"2185 RITCHY RD", "abbrev":"", "descrip":"", "url":""},{"bldgID": "115", "lat":29.65165, "lng":-82.35399, "bldg":"0127", "cname":"PRESIDENTS RESIDENCE", "oname":"PRESIDENTS RESIDENCE", "add1":"", "abbrev":"PRES", "descrip":"", "url":""},{"bldgID": "116", "lat":29.63874, "lng":-82.36337, "bldg":"0128", "cname":"AGRONOMY DRYING FACILITY", "oname":"AGRONOMY DRYING FACILITY", "add1":"1493 MUSEUM DR", "abbrev":"ADF", "descrip":"", "url":""},{"bldgID": "117", "lat":29.53435, "lng":-82.30634, "bldg":"0129", "cname":"WAUBURG NORTH STORAGE SHED ", "oname":"WAUBURG NORTH STORAGE SHED", "add1":"US 441 SOUTH", "abbrev":"NONE", "descrip":"", "url":""},{"bldgID": "118", "lat":29.64797, "lng":-82.34811, "bldg":"0131", "cname":"REED LABORATORY", "oname":"PERCY L. REED LABORATORY", "add1":"1901 STADIUM RD", "abbrev":"RLA", "descrip":"", "url":""},{"bldgID": "119", "lat":29.64393, "lng":-82.34308, "bldg":"0132", "cname":"CENTREX (UNIVERSITY POLICE)", "oname":"CENTREX (UNIVERSITY POLICE)", "add1":"1577 MUSEUM RD", "abbrev":"CENX", "descrip":"", "url":""},{"bldgID": "120", "lat":29.53326, "lng":-82.30655, "bldg":"0133", "cname":"WAUBURG NORTH RESIDENCE ", "oname":"WAUBURG NORTH RESIDENCE ", "add1":"US 441 SOUTH", "abbrev":"", "descrip":"", "url":""},{"bldgID": "121", "lat":29.65137, "lng":-82.34531, "bldg":"0134", "cname":"FLETCHER HALL", "oname":"DUNCAN U. FLETCHER HALL", "add1":"72 BUCKMAN DR", "abbrev":"FLE", "descrip":"Cited as Contributing Structure to University of Florida Campus Historic District", "url":""},{"bldgID": "122", "lat":29.65121, "lng":-82.34673, "bldg":"0135", "cname":"MURPHREE HALL", "oname":"ALBERT A. MURPHREE HALL", "add1":"110 FLETCHER DR", "abbrev":"NONE", "descrip":"Cited as Contributing Structure to University of Florida Campus Historic District.", "url":""},{"bldgID": "123", "lat":29.73277, "lng":-82.22101, "bldg":"0137", "cname":"EDUCATION BLDG, FORESTRY-ACMF", "oname":"EDUCATION BLDG, FORESTRY-ACMF", "add1":"10625 NE WALDO ROAD", "abbrev":"", "descrip":"", "url":""},{"bldgID": "124", "lat":29.73406, "lng":-82.22105, "bldg":"0139", "cname":"FIELD LAB, FORESTRY-ACMF", "oname":"FIELD LAB, FORESTRY-ACMF", "add1":"10625 NE WALDO ROAD", "abbrev":"", "descrip":"", "url":""},{"bldgID": "125", "lat":29.7332, "lng":-82.22151, "bldg":"0140", "cname":"FIELD LAB/STORAGE, FORESTRY-ACMF", "oname":"FIELD LAB/STORAGE, FORESTRY-ACMF", "add1":"10625 NE WALDO ROAD", "abbrev":"", "descrip":"", "url":""},{"bldgID": "126", "lat":29.73313, "lng":-82.22145, "bldg":"0143", "cname":"FIELD LAB/STORAGE, FORESTRY-ACMF", "oname":"FIELD LAB/STORAGE, FORESTRY-ACMF", "add1":"10625 NE WALDO ROAD", "abbrev":"", "descrip":"", "url":""},{"bldgID": "127", "lat":29.53393, "lng":-82.3058, "bldg":"0144", "cname":"WAUBURG NORTH CYPRESS LODGE", "oname":"WAUBURG NORTH CYPRESS LODGE", "add1":"US 441 SOUTH", "abbrev":"", "descrip":"", "url":""},{"bldgID": "128", "lat":29.53377, "lng":-82.30631, "bldg":"0145", "cname":"WAUBURG NORTH COMFORTSTATION", "oname":"WAUBURG NORTH COMFORTSTATION", "add1":"US 441 SOUTH", "abbrev":"", "descrip":"", "url":""},{"bldgID": "129", "lat":29.5341, "lng":-82.30654, "bldg":"0146", "cname":"WAUBURG NORTH PUMPHOUSE", "oname":"WAUBURG NORTH PUMPHOUSE", "add1":"US 441 SOUTH", "abbrev":"", "descrip":"", "url":""},{"bldgID": "130", "lat":29.62797, "lng":-82.35367, "bldg":"0147", "cname":"AGRONOMY PLANT INTRO LAB", "oname":"AGRONOMY PLANT INTRO LAB", "add1":"2185 RITCHY RD", "abbrev":"NONE", "descrip":"", "url":""},{"bldgID": "131", "lat":29.6506, "lng":-82.35153, "bldg":"0148", "cname":"PARKING GARAGE 7 (OCONNELL)", "oname":"PARKING GARAGE 7 (OCONNELL)", "add1":"226 GALE LEMERAND DR", "abbrev":"", "descrip":"", "url":""},{"bldgID": "132", "lat":29.74375, "lng":-82.26537, "bldg":"0149", "cname":"PUMP HOUSE", "oname":"PUMP HOUSE", "add1":"9800 N CR 255", "abbrev":"NONE", "descrip":"", "url":""},{"bldgID": "133", "lat":29.64583, "lng":-82.34578, "bldg":"0150", "cname":"WILDLIFE ECOLOGY", "oname":"WILDLIFE ECOLOGY", "add1":"1746 MCCARTY DR", "abbrev":"NONE", "descrip":"", "url":""},{"bldgID": "134", "lat":29.65006, "lng":-82.35774, "bldg":"0151", "cname":"VARSITY TENNIS BUILDING", "oname":"VARSITY TENNIS BUILDING", "add1":"2363 SW 2ND AV  ", "abbrev":"VTB", "descrip":"", "url":""},{"bldgID": "135", "lat":29.63366, "lng":-82.36171, "bldg":"0152", "cname":"CROPS AND SOILS FIELD LAB", "oname":"CROPS AND SOILS FIELD LAB", "add1":"2024 IFAS RESEARCH DR", "abbrev":"CSFL", "descrip":"", "url":""},{"bldgID": "136", "lat":29.65247, "lng":-82.34959, "bldg":"0153", "cname":"DEVELOPMENT & ALUMNI AFFAIRS", "oname":"DEVELOPMENT & ALUMNI AFFAIRS", "add1":"100 NW 20TH ST", "abbrev":"ODAA", "descrip":"", "url":""},{"bldgID": "137", "lat":29.63908, "lng":-82.35802, "bldg":"0154", "cname":"STORAGE BLDG", "oname":"STORAGE BLDG", "add1":"2350 MOWRY RD", "abbrev":"NONE", "descrip":"", "url":""},{"bldgID": "138", "lat":29.64917, "lng":-82.34863, "bldg":"0155", "cname":"FLORIDA FIELD SOUTH END ZONE", "oname":"FLORIDA FIELD SOUTH END ZONE", "add1":"1950 STADIUM RD", "abbrev":"SEZ", "descrip":"", "url":""},{"bldgID": "139", "lat":29.65003, "lng":-82.3494, "bldg":"0157", "cname":"STADIUM, BEN HILL GRIFFIN", "oname":"BEN HILL GRIFFIN STADIUM", "add1":"245 GALE LEMERAND DR", "abbrev":"STA", "descrip":"Named for Ben Hill Griffin in 1990", "url":""},{"bldgID": "140", "lat":29.65009, "lng":-82.34804, "bldg":"0158", "cname":"YON HALL", "oname":"YON HALL", "add1":"1908 STADIUM RD", "abbrev":"YON", "descrip":"", "url":""},{"bldgID": "141", "lat":29.65083, "lng":-82.34862, "bldg":"0159", "cname":"FLORIDA FIELD NORTH END ZONE", "oname":"FLORIDA FIELD NORTH END ZONE", "add1":"121 GALE LEMERAND DR", "abbrev":"NEZ", "descrip":"", "url":""},{"bldgID": "142", "lat":29.65109, "lng":-82.34862, "bldg":"0160", "cname":"HERITAGE HALL", "oname":"HERITAGE HALL", "add1":"105 GALE LEMERAND DR", "abbrev":"HER", "descrip":"", "url":""},{"bldgID": "143", "lat":29.64749, "lng":-82.33989, "bldg":"0161", "cname":"PUMP HOUSE (OCALA POND)", "oname":"PUMP HOUSE (OCALA POND)", "add1":"1334 INNER RD", "abbrev":"", "descrip":"", "url":""},{"bldgID": "144", "lat":29.64603, "lng":-82.34567, "bldg":"0162", "cname":"IFAS INFORMATION TECHNOLOGIES", "oname":"IFAS INFORMATION TECHNOLOGIES", "add1":"1740 MCCARTY DR", "abbrev":"IIT", "descrip":"", "url":""},{"bldgID": "145", "lat":29.65073, "lng":-82.34765, "bldg":"0163", "cname":"NORTH END ZONE COOLING TOWER", "oname":"NORTH END ZONE COOLING TOWER", "add1":"138 FLETCHER DR", "abbrev":"", "descrip":"", "url":""},{"bldgID": "146", "lat":29.63866, "lng":-82.35607, "bldg":"0164", "cname":"PESTICIDE INFO", "oname":"PESTICIDE INFORMATION", "add1":"2306 MOWRY RD", "abbrev":"NONE", "descrip":"", "url":""},{"bldgID": "147", "lat":29.63321, "lng":-82.35144, "bldg":"0165", "cname":"DERISO HALL", "oname":"DERISO HALL", "add1":"2030 SHEALY DR", "abbrev":"DER", "descrip":"", "url":""},{"bldgID": "148", "lat":29.63616, "lng":-82.34897, "bldg":"0166", "cname":"PARKING GARAGE 9 (ARCHER)", "oname":"PARKING GARAGE 9 (ARCHER RD S)", "add1":"1995 SW ARCHER RD", "abbrev":"NONE", "descrip":"", "url":""},{"bldgID": "149", "lat":29.63781, "lng":-82.36288, "bldg":"0168", "cname":"MYCOLOGY LAB", "oname":"MYCOLOGY LAB", "add1":"2668 HULL RD", "abbrev":"IMAG", "descrip":"", "url":""},{"bldgID": "150", "lat":29.63773, "lng":-82.34964, "bldg":"0170", "cname":"DAVIS CANCER PAVILION", "oname":"DAVIS CANCER PAVILION", "add1":"1535 GALE LEMERAND DR", "abbrev":"NONE", "descrip":"", "url":""},{"bldgID": "151", "lat":29.63782, "lng":-82.34902, "bldg":"0171", "cname":"SHANDS MEDICAL PLAZA B", "oname":"SHANDS MEDICAL PLAZA B", "add1":"1549 GALE LEMERAND DR", "abbrev":"SMPB", "descrip":"", "url":""},{"bldgID": "152", "lat":29.6491, "lng":-82.34535, "bldg":"0172", "cname":"NEWELL ANNEX", "oname":"NEWELL ANNEX", "add1":"1748 STADIUM RD", "abbrev":"NEWX", "descrip":"", "url":""},{"bldgID": "153", "lat":29.63649, "lng":-82.34913, "bldg":"0173", "cname":"PARKING GARAGE 9 (ARCHER)", "oname":"PARKING GARAGE 9 (ARCHER RD N)", "add1":"1995 SW ARCHER RD", "abbrev":"NONE", "descrip":"", "url":""},{"bldgID": "154", "lat":29.64414, "lng":-82.41913, "bldg":"0174", "cname":"WRUF TRANSMITTER BUILDING", "oname":"WRUF TRANSMITTER BUILDING", "add1":"SW 8TH AVENUE", "abbrev":"WRUF", "descrip":"", "url":""},{"bldgID": "155", "lat":29.63913, "lng":-82.34999, "bldg":"0175", "cname":"WILMOT GARDENS ADMIN", "oname":"WILMOT GARDENS ADMIN BLDG", "add1":"2023 MOWRY RD", "abbrev":"NONE", "descrip":"", "url":""},{"bldgID": "156", "lat":29.64838, "lng":-82.34158, "bldg":"0176", "cname":"PUMP HOUSE (GATOR POND)", "oname":"PUMP HOUSE (GATOR POND)", "add1":"1463 STADIUM RD", "abbrev":"", "descrip":"", "url":""},{"bldgID": "157", "lat":29.63736, "lng":-82.35314, "bldg":"0177", "cname":"VET SCIENCE PARASITE LAB", "oname":"VET SCIENCE PARASITE LAB", "add1":"2171 MOWRY RD", "abbrev":"PARL", "descrip":"", "url":""},{"bldgID": "158", "lat":29.64355, "lng":-82.34384, "bldg":"0179", "cname":"EH&S ADMINISTRATIVE OFFICES", "oname":"EH&S ADMINISTRATIVE OFFICES", "add1":"916 NEWELL DR", "abbrev":"NONE", "descrip":"", "url":""},{"bldgID": "159", "lat":29.64628, "lng":-82.34908, "bldg":"0180", "cname":"FIBER HUT MAE ", "oname":"FIBER HUT MAE", "add1":"645 GALE LEMERAND DR", "abbrev":"NONE", "descrip":"", "url":""},{"bldgID": "160", "lat":29.64439, "lng":-82.34418, "bldg":"0181", "cname":"DICKINSON HALL ", "oname":"JOSHUA C. DICKINSON HALL", "add1":"1659 MUSEUM RD", "abbrev":"MUS", "descrip":"Named for Joshua C. Dickinson, Jr.", "url":""},{"bldgID": "161", "lat":29.63751, "lng":-82.35675, "bldg":"0182", "cname":"FIELD LAB/TRAILER, FORESTRY", "oname":"FIELD LAB/TRAILER, FORESTRY", "add1":"2333 MOWRY RD", "abbrev":"FF2", "descrip":"", "url":""},{"bldgID": "162", "lat":29.64735, "lng":-82.3495, "bldg":"0183", "cname":"MECHANICAL & AEROSPACE ENG C", "oname":"MECHANICAL & AEROSPACE ENG C", "add1":"571 GALE LEMERAND DR", "abbrev":"MAEC", "descrip":"", "url":""},{"bldgID": "163", "lat":29.64749, "lng":-82.34901, "bldg":"0184", "cname":"RHINES HALL", "oname":"FREDERICK N RHINES HALL", "add1":"549 GALE LEMERAND DR", "abbrev":"RHN", "descrip":"", "url":""},{"bldgID": "164", "lat":29.65148, "lng":-82.34046, "bldg":"0185", "cname":"BRYAN FIRE PUMP BUILDING", "oname":"BRYAN FIRE PUMP BUILDING", "add1":"1398 UNION RD", "abbrev":"", "descrip":"", "url":""},{"bldgID": "165", "lat":29.77905, "lng":-82.41673, "bldg":"0186", "cname":"RESEARCH FACILITY", "oname":"RESEARCH FACILITY (HAGUE)", "add1":"CR-237", "abbrev":"NONE", "descrip":"", "url":""},{"bldgID": "166", "lat":29.77869, "lng":-82.41863, "bldg":"0188", "cname":"RESIDENCE", "oname":"RESIDENCE (HAGUE)", "add1":"CR-237", "abbrev":"NONE", "descrip":"", "url":""},{"bldgID": "167", "lat":29.6378, "lng":-82.3564, "bldg":"0191", "cname":"FIELD LAB, FORESTRY", "oname":"FIELD LAB, FORESTRY", "add1":"2319 MOWRY RD", "abbrev":"FF3", "descrip":"", "url":""},{"bldgID": "168", "lat":29.6394, "lng":-82.35632, "bldg":"0193", "cname":"AGRONOMY CYTOLOGY LABORATORY", "oname":"AGRONOMY CYTOLOGY LABORATORY", "add1":"1447 SABLE PALM DR", "abbrev":"CYTL", "descrip":"", "url":""},{"bldgID": "169", "lat":29.63942, "lng":-82.356, "bldg":"0194", "cname":"AGRONOMY VOLATILE STORAGE", "oname":"AGRONOMY VOLATILE STORAGE", "add1":"1447 SABLE PALM DR", "abbrev":"AVS", "descrip":"", "url":""},{"bldgID": "170", "lat":29.74495, "lng":-82.26376, "bldg":"0195", "cname":"SCALE SHED", "oname":"SCALE SHED", "add1":"9800 N CR 255", "abbrev":"NONE", "descrip":"", "url":""},{"bldgID": "171", "lat":29.74356, "lng":-82.26511, "bldg":"0196", "cname":"EQUIPMENT STORAGE", "oname":"EQUIPMENT STORAGE", "add1":"9800 N CR 255", "abbrev":"BRU1", "descrip":"", "url":""},{"bldgID": "172", "lat":29.6492, "lng":-82.34116, "bldg":"0197", "cname":"U. F. SUBSTATION #7", "oname":"U. F. SUBSTATION #7", "add1":"1455 UNION RD", "abbrev":"", "descrip":"", "url":""},{"bldgID": "173", "lat":29.64441, "lng":-82.36414, "bldg":"0198", "cname":"CNS STORAGE", "oname":"CNS STORAGE", "add1":"", "abbrev":"NONE", "descrip":"", "url":""},{"bldgID": "174", "lat":29.63913, "lng":-82.3568, "bldg":"0199", "cname":"WAREHOUSE", "oname":"WAREHOUSE", "add1":"1437 DATE PALM RD", "abbrev":"NONE", "descrip":"", "url":""},{"bldgID": "175", "lat":29.6377, "lng":-82.35636, "bldg":"0200", "cname":"DRYING FACILITY, FORESTRY ", "oname":"DRYING FACILITY, FORESTRY ", "add1":"2333 MOWRY RD", "abbrev":"FDRY", "descrip":"", "url":""},{"bldgID": "176", "lat":29.64117, "lng":-82.34384, "bldg":"0201", "cname":"ACADEMIC RESEARCH BUILDING", "oname":"ACADEMIC RESEARCH BUILDING", "add1":"1200 NEWELL DR", "abbrev":"ARB", "descrip":"", "url":""},{"bldgID": "177", "lat":29.64007, "lng":-82.34303, "bldg":"0202", "cname":"SHANDS PATIENT SERVICES BLDG", "oname":"SHANDS PATIENT SERVICES BLDG", "add1":"1600 SW ARCHER RD", "abbrev":"PSB", "descrip":"", "url":""},{"bldgID": "178", "lat":29.64087, "lng":-82.34491, "bldg":"0203", "cname":"COMMUNICORE", "oname":"COMMUNICORE", "add1":"1249 CENTER DR", "abbrev":"COM", "descrip":"", "url":""},{"bldgID": "179", "lat":29.64009, "lng":-82.34444, "bldg":"0204", "cname":"GENERAL SERVICES BUILDING", "oname":"GENERAL SERVICES", "add1":"1361 CENTER DR", "abbrev":"GSA", "descrip":"", "url":""},{"bldgID": "180", "lat":29.6395, "lng":-82.34503, "bldg":"0205", "cname":"DENTAL SCIENCE BUILDING", "oname":"DENTAL SCIENCE", "add1":"1395 CENTER DR", "abbrev":"DSB", "descrip":"", "url":""},{"bldgID": "181", "lat":29.6402, "lng":-82.3457, "bldg":"0206", "cname":"BASIC SCIENCE", "oname":"BASIC SCIENCE BUILDING", "add1":"1333 CENTER DR", "abbrev":"BSU", "descrip":"", "url":""},{"bldgID": "182", "lat":29.64108, "lng":-82.34208, "bldg":"0207", "cname":"PARKING GARAGE 1 (SHANDS EAST)", "oname":"PARKING GARAGE 1 (SHANDS EAST)", "add1":"1231 NEWELL DR", "abbrev":"", "descrip":"", "url":""},{"bldgID": "183", "lat":29.64064, "lng":-82.34167, "bldg":"0208", "cname":"PARKING GARAGE 10 (SHANDS E)", "oname":"PARKING GARAGE 10 (SHANDS E)", "add1":"1269 NEWELL DR", "abbrev":"", "descrip":"", "url":""},{"bldgID": "184", "lat":29.63887, "lng":-82.34677, "bldg":"0209", "cname":"PARKING GARAGE 2 (SHANDS WEST)", "oname":"PARKING GARAGE 2 (SHANDS WEST)", "add1":"1831 MOWRY RD", "abbrev":"", "descrip":"", "url":""},{"bldgID": "185", "lat":29.64099, "lng":-82.34701, "bldg":"0211", "cname":"SANITARY LIFT STATION L1", "oname":"SANITARY LIFT STATION L1", "add1":"1858 MOWRY RD", "abbrev":"LSL1", "descrip":"", "url":""},{"bldgID": "186", "lat":29.64165, "lng":-82.34526, "bldg":"0212", "cname":"HEALTH PROF, NURSING, PHARMACY", "oname":"HEALTH PROF, NURSING & PHARMACY", "add1":"1225 CENTER DR", "abbrev":"HPNP", "descrip":"", "url":""},{"bldgID": "187", "lat":29.64061, "lng":-82.3457, "bldg":"0213", "cname":"BIOMEDICAL SCIENCES", "oname":"BIOMEDICAL SCIENCES BUILDING", "add1":"1275 CENTER DR", "abbrev":"BMS", "descrip":"The building is a $91 million, 163,000 square-foot interdisciplinary facility that houses researchers affiliated with the College of Medicine, College of Public Health and Health Professions, and the Howard Hughes Medical Institute, as well as the research and administrative operations of the College of Engineering`s J. Crayton Pruitt Family Department of Biomedical Engineering.", "url":""},{"bldgID": "188", "lat":29.63327, "lng":-82.34994, "bldg":"0215", "cname":"VETERINARY CLINICAL SCIENCES", "oname":"VETERINARY CLINICAL SCIENCES", "add1":"2015 SW 16TH AV", "abbrev":"VCS", "descrip":"", "url":""},{"bldgID": "189", "lat":29.63182, "lng":-82.35006, "bldg":"0216", "cname":"VET MED FOOD ANIMAL CLINIC", "oname":"VET MED FOOD ANIMAL CLINIC", "add1":"2221 SHEALY DR", "abbrev":"FACL", "descrip":"", "url":""},{"bldgID": "190", "lat":29.63275, "lng":-82.349, "bldg":"0217", "cname":"VET MED METABOLIC BUILDING", "oname":"VET MED METABOLIC BUILDING", "add1":"1963 SW 16TH AV", "abbrev":"VMMB", "descrip":"", "url":""},{"bldgID": "191", "lat":29.6318, "lng":-82.34806, "bldg":"0218", "cname":"VET MED EQUINE BARN", "oname":"VET MED EQUINE BARN", "add1":"1951 SW 16TH AV", "abbrev":"", "descrip":"", "url":""},{"bldgID": "192", "lat":29.63113, "lng":-82.36719, "bldg":"0219", "cname":"HEALTH CENTER SURGE #1", "oname":"HEALTH CENTER SURGE #1", "add1":"3039 LONGLEAF RD", "abbrev":"HCS1", "descrip":"", "url":""},{"bldgID": "193", "lat":29.63708, "lng":-82.34358, "bldg":"0220", "cname":"VA EDUCATION BUILDING #14", "oname":"VA EDUCATION BUILDING #14", "add1":"", "abbrev":"", "descrip":"", "url":""},{"bldgID": "194", "lat":29.6316, "lng":-82.34996, "bldg":"0222", "cname":"POLE BARN", "oname":"VET MED POLE BARN", "add1":"", "abbrev":"NONE", "descrip":"", "url":""},{"bldgID": "195", "lat":29.63347, "lng":-82.34709, "bldg":"0224", "cname":"VET MED DOG TRACK CONTROL TWR", "oname":"VET MED DOG TRACK CONTROL TWR", "add1":"", "abbrev":"", "descrip":"", "url":""},{"bldgID": "196", "lat":29.63079, "lng":-82.36723, "bldg":"0226", "cname":"MICROFABRITECH EAST", "oname":"MICROFABRITECH EAST", "add1":"3063 LONGLEAF RD", "abbrev":"MCFE", "descrip":"", "url":""},{"bldgID": "197", "lat":29.63814, "lng":-82.36328, "bldg":"0227", "cname":"AGRICULTURAL ENGINEERING SHOP", "oname":"AGRICULTURAL ENGINEERING SHOP", "add1":"1505 MUSEUM DR", "abbrev":"AGES", "descrip":"", "url":""},{"bldgID": "198", "lat":29.6347, "lng":-82.34508, "bldg":"0228", "cname":"SCHIEBLER CHILDRENS MED.SVC.CT", "oname":"SCHIEBLER CHILDRENS MED.SVC.CT", "add1":"", "abbrev":"CMSC", "descrip":"", "url":""},{"bldgID": "199", "lat":29.64469, "lng":-82.35562, "bldg":"0229", "cname":"U. F. SUBSTATION #5", "oname":"U. F. SUBSTATION #5", "add1":"2291 MUSEUM RD", "abbrev":"NONE", "descrip":"", "url":""},{"bldgID": "200", "lat":29.64875, "lng":-82.3425, "bldg":"0230", "cname":"U. F. SUBSTATION #3", "oname":"U. F. SUBSTATION #3", "add1":"1532 STADIUM RD", "abbrev":"", "descrip":"", "url":""},{"bldgID": "201", "lat":29.64371, "lng":-82.34316, "bldg":"0231", "cname":"U. F. SUBSTATION #4", "oname":"U. F. SUBSTATION #4", "add1":"899 NEWELL DR", "abbrev":"NONE", "descrip":"", "url":""},{"bldgID": "202", "lat":29.63524, "lng":-82.3501, "bldg":"0233", "cname":"U. F. SUBSTATION #6", "oname":"U. F. SUBSTATION #6", "add1":"", "abbrev":"NONE", "descrip":"", "url":""},{"bldgID": "203", "lat":29.64813, "lng":-82.34909, "bldg":"0234", "cname":"U. F. SUBSTATION #1", "oname":"U. F. SUBSTATION #1", "add1":"429 GALE LEMERAND DR", "abbrev":"NONE", "descrip":"", "url":""},{"bldgID": "204", "lat":29.65048, "lng":-82.34713, "bldg":"0236", "cname":"FLORIDA POOL COMPRESSOR BLDG", "oname":"FLORIDA POOL COMPRESSOR BLDG", "add1":"", "abbrev":"", "descrip":"", "url":""},{"bldgID": "205", "lat":29.64034, "lng":-82.35725, "bldg":"0238", "cname":"EQUIPMENT STORAGE", "oname":"EQUIPMENT STORAGE", "add1":"1354 DATE PALM RD", "abbrev":"NONE", "descrip":"", "url":""},{"bldgID": "206", "lat":29.62761, "lng":-82.36031, "bldg":"0240", "cname":"FORD FUEL CELL RESEARCH LAB", "oname":"FORD FUEL CELL RESEARCH LAB", "add1":"2610 SW 23RD TER", "abbrev":"FFCL", "descrip":"", "url":""},{"bldgID": "207", "lat":29.62867, "lng":-82.36097, "bldg":"0241", "cname":"SOLAR ENERGY TEST HOUSE 1", "oname":"SOLAR ENERGY TEST HOUSE 1", "add1":"2610 SW 23RD TER", "abbrev":"SET1", "descrip":"", "url":""},{"bldgID": "208", "lat":29.62839, "lng":-82.36086, "bldg":"0242", "cname":"SOLAR ENERGY TEST HOUSE 2", "oname":"SOLAR ENERGY TEST HOUSE 2", "add1":"2610 SW 23RD TER", "abbrev":"SET2", "descrip":"", "url":""},{"bldgID": "209", "lat":29.62723, "lng":-82.36149, "bldg":"0243", "cname":"ENVIRONMENTAL BIOTECH. LAB", "oname":"ENVIRONMENTAL BIOTECH. LAB", "add1":"2610 SW 23RD TER", "abbrev":"", "descrip":"", "url":""},{"bldgID": "210", "lat":29.62749, "lng":-82.36149, "bldg":"0245", "cname":"BIOREMEDIATION LABORATORY", "oname":"BIOREMEDIATION LAB", "add1":"2610 SW 23RD TER", "abbrev":"BIOL", "descrip":"", "url":""},{"bldgID": "211", "lat":29.62765, "lng":-82.36148, "bldg":"0246", "cname":"ENVIRONMENTAL MICROBIOLOGY LAB", "oname":"ENVIRONMENTAL MICROBIOLOGY", "add1":"2610 SW 23RD TER", "abbrev":"EML", "descrip":"", "url":""},{"bldgID": "212", "lat":29.62708, "lng":-82.36066, "bldg":"0247", "cname":"SOLAR ENGINEERING LABORATORY", "oname":"SOLAR ENGINEERING LABORATORY", "add1":"2610 SW 23RD TER", "abbrev":"SEL", "descrip":"", "url":""},{"bldgID": "213", "lat":29.62781, "lng":-82.36052, "bldg":"0249", "cname":"SOLAR WELL HOUSE", "oname":"SOLAR ENERGY WELL HOUSE", "add1":"", "abbrev":"", "descrip":"", "url":""},{"bldgID": "214", "lat":29.63092, "lng":-82.36728, "bldg":"0250", "cname":"MICROFABRITECH CONTAINMENT SHELTER", "oname":"MICROFABRITECH CONTAINMENT SHELT", "add1":"2230 SURGE AREA DR", "abbrev":"", "descrip":"", "url":""},{"bldgID": "215", "lat":29.65282, "lng":-82.3496, "bldg":"0253", "cname":"UF FOUNDATION ANNEX", "oname":"UNIVERSITY FOUNDATION ANNEX", "add1":"100 NW 20th ST", "abbrev":"UFFX", "descrip":"", "url":""},{"bldgID": "216", "lat":29.64668, "lng":-82.35327, "bldg":"0255", "cname":"GATOR BAND SHELL", "oname":"GATOR BAND SHELL", "add1":"605 WOODLAWN DR", "abbrev":"GBS", "descrip":"", "url":""},{"bldgID": "217", "lat":29.64578, "lng":-82.35337, "bldg":"0256", "cname":"GATOR BAND SHELL RESTROOMS", "oname":"GATOR BANDSHELL RESTROOMS", "add1":"2174 MUSEUM RD", "abbrev":"", "descrip":"", "url":""},{"bldgID": "218", "lat":29.64553, "lng":-82.35323, "bldg":"0257", "cname":"RECREATIONAL TENNIS FACILITY", "oname":"RECREATIONAL TENNIS FACILITY", "add1":"2166 MUSEUM RD", "abbrev":"", "descrip":"", "url":""},{"bldgID": "219", "lat":29.63918, "lng":-82.36376, "bldg":"0258", "cname":"WEED SCIENCES FIELD BUILDING", "oname":"WEED SCIENCES FIELD BUILDING", "add1":"1425 MUSEUM DR", "abbrev":"WSFL", "descrip":"", "url":""},{"bldgID": "220", "lat":29.62, "lng":-82.41434, "bldg":"0259", "cname":"TREEO CENTER", "oname":"TREEO CENTER", "add1":"3900 SW 63RD BLVD", "abbrev":"TREC", "descrip":"", "url":""},{"bldgID": "221", "lat":29.65249, "lng":-82.34906, "bldg":"0261", "cname":"EMERSON ALUMNI HALL", "oname":"EMERSON ALUMNI HALL", "add1":"1938 WEST UNIVERSITY AVE", "abbrev":"EAH", "descrip":"", "url":""},{"bldgID": "222", "lat":29.63925, "lng":-82.35986, "bldg":"0263", "cname":"IFAS PUMP HOUSE", "oname":"IFAS PUMP HOUSE", "add1":"", "abbrev":"", "descrip":"", "url":""},{"bldgID": "223", "lat":29.65012, "lng":-82.34676, "bldg":"0265", "cname":"STUDENT RECREATION&FITNESS CTR", "oname":"STUDENT RECREATION&FITNESS CTR", "add1":"244 FLETCHER DR", "abbrev":"RFC", "descrip":"", "url":""},{"bldgID": "224", "lat":29.65012, "lng":-82.34634, "bldg":"0266", "cname":"RECREATIONAL CENTER DINING", "oname":"RECREATIONAL CENTER DINING", "add1":"222 FLETCHER DR", "abbrev":"RCD", "descrip":"Special Features: Florida murals by John Walton in Racquet Club dining areas", "url":""},{"bldgID": "225", "lat":29.64921, "lng":-82.34407, "bldg":"0267", "cname":"TURLINGTON HALL", "oname":"RALPH D. TURLINGTON HALL", "add1":"330 NEWELL DR", "abbrev":"TUR", "descrip":"Named for Ralph Turlington Special Feature: The Rock, Florida chert, installed in 1984 in front of building  ", "url":""},{"bldgID": "226", "lat":29.64775, "lng":-82.3417, "bldg":"0268", "cname":"ARCHITECTURE", "oname":"ARCHITECTURE", "add1":"1480 INNER RD", "abbrev":"ARCH", "descrip":"", "url":""},{"bldgID": "227", "lat":29.6484, "lng":-82.34017, "bldg":"0269", "cname":"FINE ARTS D", "oname":"FINE ARTS D", "add1":"1357 STADIUM RD", "abbrev":"FAD", "descrip":"", "url":""},{"bldgID": "228", "lat":29.64444, "lng":-82.37001, "bldg":"0270", "cname":"PHYSICAL PLANT TRAINING TRLR", "oname":"PHYSICAL PLANT TRAINING TRLR", "add1":"908 MAGNOLIA DR", "abbrev":"", "descrip":"", "url":""},{"bldgID": "229", "lat":29.64138, "lng":-82.34119, "bldg":"0271", "cname":"SCHUCHT APARTMENTS", "oname":"SCHUCHT", "add1":"1283 NEWELL DR", "abbrev":"SCH", "descrip":"", "url":""},{"bldgID": "230", "lat":29.64694, "lng":-82.3432, "bldg":"0272", "cname":"RINKER HALL", "oname":"M.E. RINKER HALL", "add1":"573 NEWELL DR", "abbrev":"RNK", "descrip":"", "url":""},{"bldgID": "231", "lat":29.64717, "lng":-82.36201, "bldg":"0276", "cname":"CORRY   APARTMENTS", "oname":"CORRY", "add1":"587 CORRY CIR", "abbrev":"", "descrip":"", "url":""},{"bldgID": "232", "lat":29.64676, "lng":-82.36204, "bldg":"0277", "cname":"CORRY   APARTMENTS", "oname":"CORRY", "add1":"637 CORRY CIR", "abbrev":"", "descrip":"", "url":""},{"bldgID": "233", "lat":29.64636, "lng":-82.36203, "bldg":"0278", "cname":"CORRY   APARTMENTS", "oname":"CORRY", "add1":"661 CORRY CIR", "abbrev":"", "descrip":"", "url":""},{"bldgID": "234", "lat":29.64596, "lng":-82.36203, "bldg":"0279", "cname":"CORRY   APARTMENTS", "oname":"CORRY", "add1":"703 CORRY CIR", "abbrev":"", "descrip":"", "url":""},{"bldgID": "235", "lat":29.64557, "lng":-82.36202, "bldg":"0280", "cname":"CORRY   APARTMENTS", "oname":"CORRY", "add1":"771 CORRY CIR", "abbrev":"", "descrip":"", "url":""},{"bldgID": "236", "lat":29.64732, "lng":-82.36152, "bldg":"0281", "cname":"CORRY   APARTMENTS", "oname":"CORRY", "add1":"561 CORRY CIR", "abbrev":"", "descrip":"", "url":""},{"bldgID": "237", "lat":29.64693, "lng":-82.36151, "bldg":"0282", "cname":"CORRY   APARTMENTS", "oname":"CORRY", "add1":"629 CORRY CIR", "abbrev":"", "descrip":"", "url":""},{"bldgID": "238", "lat":29.64652, "lng":-82.36151, "bldg":"0283", "cname":"CORRY   APARTMENTS", "oname":"CORRY", "add1":"653 CORRY CIR", "abbrev":"", "descrip":"", "url":""},{"bldgID": "239", "lat":29.64613, "lng":-82.3615, "bldg":"0284", "cname":"CORRY   APARTMENTS", "oname":"CORRY", "add1":"677 CORRY CIR", "abbrev":"", "descrip":"", "url":""},{"bldgID": "240", "lat":29.64573, "lng":-82.3615, "bldg":"0285", "cname":"CORRY   APARTMENTS", "oname":"CORRY", "add1":"739 CORRY CIR", "abbrev":"", "descrip":"", "url":""},{"bldgID": "241", "lat":29.64703, "lng":-82.36075, "bldg":"0286", "cname":"CORRY   APARTMENTS", "oname":"CORRY", "add1":"523 CORRY CIR", "abbrev":"", "descrip":"", "url":""},{"bldgID": "242", "lat":29.64636, "lng":-82.36102, "bldg":"0287", "cname":"CORRY   APARTMENTS", "oname":"CORRY LAUNDRY & MAINT", "add1":"620 VILLAGE DR", "abbrev":"", "descrip":"", "url":""},{"bldgID": "243", "lat":29.6473, "lng":-82.36078, "bldg":"0288", "cname":"CORRY   APARTMENTS", "oname":"CORRY", "add1":"517 CORRY CIR", "abbrev":"", "descrip":"", "url":""},{"bldgID": "244", "lat":29.64607, "lng":-82.36067, "bldg":"0289", "cname":"CORRY   APARTMENTS", "oname":"CORRY", "add1":"658 VILLAGE DR", "abbrev":"", "descrip":"", "url":""},{"bldgID": "245", "lat":29.64656, "lng":-82.36073, "bldg":"0290", "cname":"CORRY COMMONS", "oname":"CORRY COMMONS", "add1":"614 VILLAGE DR", "abbrev":"", "descrip":"", "url":""},{"bldgID": "246", "lat":29.63558, "lng":-82.36839, "bldg":"0295", "cname":"CHILLED WATER PLANT #4 (SW)", "oname":"CHILLED WATER PLANT #4", "add1":"3113 HULL RD", "abbrev":"CWP4", "descrip":"", "url":""},{"bldgID": "247", "lat":29.64319, "lng":-82.34124, "bldg":"0296", "cname":"DIAMOND APARTMENTS", "oname":"DIAMOND", "add1":"1394 DIAMOND RD", "abbrev":"", "descrip":"", "url":""},{"bldgID": "248", "lat":29.64324, "lng":-82.3406, "bldg":"0297", "cname":"DIAMOND APARTMENTS", "oname":"DIAMOND", "add1":"1336 DIAMOND RD", "abbrev":"", "descrip":"", "url":""},{"bldgID": "249", "lat":29.64327, "lng":-82.34004, "bldg":"0298", "cname":"DIAMOND APARTMENTS", "oname":"DIAMOND", "add1":"1322 DIAMOND RD", "abbrev":"", "descrip":"", "url":""},{"bldgID": "250", "lat":29.64285, "lng":-82.34134, "bldg":"0299", "cname":"DIAMOND APARTMENTS", "oname":"DIAMOND", "add1":"1452 DIAMOND RD", "abbrev":"", "descrip":"", "url":""},{"bldgID": "251", "lat":29.64287, "lng":-82.34074, "bldg":"0300", "cname":"DIAMOND APARTMENTS", "oname":"DIAMOND", "add1":"1382 DIAMOND RD", "abbrev":"", "descrip":"", "url":""},{"bldgID": "252", "lat":29.64297, "lng":-82.34008, "bldg":"0301", "cname":"DIAMOND APARTMENTS", "oname":"DIAMOND", "add1":"1344 DIAMOND RD", "abbrev":"", "descrip":"", "url":""},{"bldgID": "253", "lat":29.64224, "lng":-82.34195, "bldg":"0302", "cname":"DIAMOND APARTMENTS", "oname":"DIAMOND", "add1":"1498 DIAMOND RD", "abbrev":"", "descrip":"", "url":""},{"bldgID": "254", "lat":29.64252, "lng":-82.34115, "bldg":"0303", "cname":"DIAMOND APARTMENTS", "oname":"DIAMOND", "add1":"1444 DIAMOND RD", "abbrev":"", "descrip":"", "url":""},{"bldgID": "255", "lat":29.64268, "lng":-82.3402, "bldg":"0304", "cname":"DIAMOND APARTMENTS", "oname":"DIAMOND", "add1":"1376 DIAMOND RD", "abbrev":"", "descrip":"", "url":""},{"bldgID": "256", "lat":29.64191, "lng":-82.34185, "bldg":"0305", "cname":"DIAMOND APARTMENTS", "oname":"DIAMOND", "add1":"1482 DIAMOND RD", "abbrev":"", "descrip":"", "url":""},{"bldgID": "257", "lat":29.64223, "lng":-82.34111, "bldg":"0306", "cname":"DIAMOND APARTMENTS", "oname":"DIAMOND", "add1":"1436 DIAMOND RD", "abbrev":"", "descrip":"", "url":""},{"bldgID": "258", "lat":29.6424, "lng":-82.34047, "bldg":"0307", "cname":"DIAMOND APARTMENTS", "oname":"DIAMOND", "add1":"1402 DIAMOND RD", "abbrev":"", "descrip":"", "url":""},{"bldgID": "259", "lat":29.63583, "lng":-82.37025, "bldg":"0308", "cname":"POWELL HALL (FLMNH)", "oname":"POWELL HALL (FLMNH)", "add1":"3215 HULL RD", "abbrev":"POW", "descrip":"", "url":"http://www.flmnh.ufl.edu/"},{"bldgID": "260", "lat":29.63692, "lng":-82.37024, "bldg":"0309", "cname":"HARN MUSEUM OF ART", "oname":"SAMUEL P. HARN MUSEUM OF ART", "add1":"3259 HULL RD", "abbrev":"HARN", "descrip":"Named for Samuel P. Harn Fragmented Reflections by Jim Piercy (Exterior Mosiac)", "url":"http://www.harn.ufl.edu/"},{"bldgID": "261", "lat":29.52303, "lng":-82.29798, "bldg":"0311", "cname":"WAUBURG SOUTH PUMPHOUSE", "oname":"WAUBURG SOUTH PUMPHOUSE", "add1":"US 441 SOUTH", "abbrev":"", "descrip":"", "url":""},{"bldgID": "262", "lat":29.52255, "lng":-82.29906, "bldg":"0312", "cname":"WAUBURG SOUTH MOBILE HOME", "oname":"WAUBURG SOUTH MOBILE HOME", "add1":"US 441 SOUTH", "abbrev":"", "descrip":"", "url":""},{"bldgID": "263", "lat":29.52262, "lng":-82.30208, "bldg":"0313", "cname":"WAUBURG SOUTH GATEHOUSE", "oname":"WAUBURG SOUTH GATEHOUSE", "add1":"US 441 SOUTH", "abbrev":"", "descrip":"", "url":""},{"bldgID": "264", "lat":29.52321, "lng":-82.29861, "bldg":"0314", "cname":"WAUBURG SOUTH COMFORTSTATION", "oname":"WAUBURG SOUTH COMFORTSTATION", "add1":"US 441 SOUTH", "abbrev":"", "descrip":"", "url":""},{"bldgID": "265", "lat":29.63528, "lng":-82.36928, "bldg":"0315", "cname":"PHILLIPS CENTER", "oname":"PHILLIPS CENTER FOR THE PERFORMING ARTS ", "add1":"3201 HULL RD", "abbrev":"PCPA", "descrip":"Mission: To provide an unparalleled experience where the very best performing artists create and share knowledge to serve the students, residents and visitors to North Central Florida. ", "url":"http://www.performingarts.ufl.edu/"},{"bldgID": "266", "lat":29.6385, "lng":-82.36828, "bldg":"0316", "cname":"SW RECREATION CENTER", "oname":"SW RECREATIONAL SPORTS FACILITY", "add1":"3150 HULL RD", "abbrev":"SWC", "descrip":"The Department of Recreational Sports opened the Southwest Recreation Center in 1994.  In 2001 the addition of a strength room and multi-activity gym was completed.  The building provided 800,000 hours of participation each year. The most recent expansion changed the face of the facility by providing new activity space, new technology and numerous energy efficient features.  The facility is the centerpiece for recreational services on the University of Florida campus.", "url":"http://www.recsports.ufl.edu/facility_swrc.aspx"},{"bldgID": "267", "lat":29.63956, "lng":-82.36594, "bldg":"0317", "cname":"CHILLED WATER PLANT #6 (WEST)", "oname":"CHILLED WATER PLANT #6", "add1":"2960 HULL RD", "abbrev":"CWP6", "descrip":"", "url":""},{"bldgID": "268", "lat":29.63802, "lng":-82.37182, "bldg":"0318", "cname":"UNIVERSITY VILLAGE APARTMENTS", "oname":"UNIVERSITY VILLAGE", "add1":"1537 BLUE CIR", "abbrev":"", "descrip":"", "url":""},{"bldgID": "269", "lat":29.63829, "lng":-82.3719, "bldg":"0319", "cname":"UNIVERSITY VILLAGE APARTMENTS", "oname":"UNIVERSITY VILLAGE", "add1":"1529 BLUE CIR", "abbrev":"", "descrip":"", "url":""},{"bldgID": "270", "lat":29.63868, "lng":-82.37198, "bldg":"0320", "cname":"UNIVERSITY VILLAGE APARTMENTS", "oname":"UNIVERSITY VILLAGE", "add1":"1483 BLUE CIR", "abbrev":"", "descrip":"", "url":""},{"bldgID": "271", "lat":29.63919, "lng":-82.37189, "bldg":"0321", "cname":"UNIVERSITY VILLAGE APARTMENTS", "oname":"UNIVERSITY VILLAGE", "add1":"1427 BLUE CIR", "abbrev":"", "descrip":"", "url":""},{"bldgID": "272", "lat":29.63811, "lng":-82.37151, "bldg":"0322", "cname":"UNIVERSITY VILLAGE APARTMENTS", "oname":"UNIVERSITY VILLAGE", "add1":"1551 BLUE CIR", "abbrev":"", "descrip":"", "url":""},{"bldgID": "273", "lat":29.63849, "lng":-82.37161, "bldg":"0323", "cname":"UNIVERSITY VILLAGE APARTMENTS", "oname":"UNIVERSITY VILLAGE", "add1":"1499 BLUE CIR", "abbrev":"", "descrip":"", "url":""},{"bldgID": "274", "lat":29.63887, "lng":-82.37168, "bldg":"0324", "cname":"UNIVERSITY VILLAGE APARTMENTS", "oname":"UNIVERSITY VILLAGE", "add1":"1465 BLUE CIR", "abbrev":"", "descrip":"", "url":""},{"bldgID": "275", "lat":29.63938, "lng":-82.37159, "bldg":"0325", "cname":"UNIVERSITY VILLAGE APARTMENTS", "oname":"UNIVERSITY VILLAGE", "add1":"1383 BLUE CIR", "abbrev":"", "descrip":"", "url":""},{"bldgID": "276", "lat":29.63802, "lng":-82.37119, "bldg":"0326", "cname":"UNIVERSITY VILLAGE APARTMENTS", "oname":"UNIVERSITY VILLAGE", "add1":"1563 BLUE CIR", "abbrev":"", "descrip":"", "url":""},{"bldgID": "277", "lat":29.63839, "lng":-82.37119, "bldg":"0327", "cname":"UNIVERSITY VILLAGE APARTMENTS", "oname":"UNIVERSITY VILLAGE", "add1":"1520 ORANGE DR", "abbrev":"", "descrip":"", "url":""},{"bldgID": "278", "lat":29.63868, "lng":-82.37132, "bldg":"0328", "cname":"UNIVERSITY VILLAGE APARTMENTS", "oname":"UNIVERSITY VILLAGE", "add1":"1488 ORANGE DR", "abbrev":"", "descrip":"", "url":""},{"bldgID": "279", "lat":29.63896, "lng":-82.37109, "bldg":"0329", "cname":"UNIVERSITY VILLAGE APARTMENTS", "oname":"UNIVERSITY VILLAGE", "add1":"1458 ORANGE DR", "abbrev":"", "descrip":"", "url":""},{"bldgID": "280", "lat":29.63913, "lng":-82.3714, "bldg":"0330", "cname":"UNIVERSITY VILLAGE APARTMENTS", "oname":"UNIVERSITY VILLAGE", "add1":"1434 ORANGE DR", "abbrev":"", "descrip":"", "url":""},{"bldgID": "281", "lat":29.63938, "lng":-82.37117, "bldg":"0331", "cname":"UNIVERSITY VILLAGE APARTMENTS", "oname":"UNIVERSITY VILLAGE", "add1":"1406 ORANGE DR", "abbrev":"", "descrip":"", "url":""},{"bldgID": "282", "lat":29.63816, "lng":-82.37087, "bldg":"0332", "cname":"UNIVERSITY VILLAGE APARTMENTS", "oname":"UNIVERSITY VILLAGE", "add1":"1544 ORANGE DR", "abbrev":"", "descrip":"", "url":""},{"bldgID": "283", "lat":29.63924, "lng":-82.37086, "bldg":"0333", "cname":"UNIVERSITY VILLAGE APARTMENTS", "oname":"UNIVERSITY VILLAGE", "add1":"1422 ORANGE DR", "abbrev":"", "descrip":"", "url":""},{"bldgID": "284", "lat":29.63873, "lng":-82.37101, "bldg":"0334", "cname":"UNIVERSITY VILLAGE LAUNDRY", "oname":"UNIVERSITY VILLAGE LAUNDRY", "add1":"1476 ORANGE DR", "abbrev":"", "descrip":"", "url":""},{"bldgID": "285", "lat":29.64129, "lng":-82.37373, "bldg":"0335", "cname":"ASC STORAGE", "oname":"ACS STORAGE", "add1":"", "abbrev":"NONE", "descrip":"", "url":""},{"bldgID": "286", "lat":29.64062, "lng":-82.37435, "bldg":"0336", "cname":"ACS HOUSING", "oname":"ACS HOUSING", "add1":"", "abbrev":"ARF2", "descrip":"", "url":""},{"bldgID": "287", "lat":29.6409, "lng":-82.3731, "bldg":"0337", "cname":"ACS HOUSING #5", "oname":"ACS HOUSING #5", "add1":"", "abbrev":"AFK5", "descrip":"", "url":""},{"bldgID": "288", "lat":29.6335, "lng":-82.355, "bldg":"0338", "cname":"FIELD LAB", "oname":"WILDLIFE FIELD LAB", "add1":"2005 SW 23RD ST", "abbrev":"FF4", "descrip":"", "url":""},{"bldgID": "289", "lat":29.63381, "lng":-82.35545, "bldg":"0339", "cname":"IFAS WILDLIFE ECOLOGY LAB", "oname":"IFAS WILDLIFE ECOLOGY LAB", "add1":"2005 SW 23RD ST", "abbrev":"WEL1", "descrip":"", "url":""},{"bldgID": "290", "lat":29.63403, "lng":-82.35542, "bldg":"0340", "cname":"IFAS WILDLIFE ECOLOGY LAB", "oname":"IFAS WILDLIFE ECOLOGY LAB", "add1":"2005 SW 23RD ST", "abbrev":"WEL2", "descrip":"", "url":""},{"bldgID": "291", "lat":29.63612, "lng":-82.37061, "bldg":"0341", "cname":"MCGUIRE CTR FOR LEPIDOPTERA RES ", "oname":"MCGUIRE CTR FOR LEPIDOPTERA RES ", "add1":"3215 HULL RD", "abbrev":"MCG", "descrip":"", "url":"http://www.flmnh.ufl.edu/butterflies/"},{"bldgID": "292", "lat":29.63344, "lng":-82.35482, "bldg":"0342", "cname":"IFAS STORAGE (AGY)", "oname":"IFAS STORAGE (AGY)", "add1":"2005 SW 23RD ST", "abbrev":"ISS3", "descrip":"", "url":""},{"bldgID": "293", "lat":29.63349, "lng":-82.35511, "bldg":"0343", "cname":"WILDLIFE FIELD LAB", "oname":"WILDLIFE FIELD LAB", "add1":"2005 SW 23RD ST", "abbrev":"FF5", "descrip":"", "url":""},{"bldgID": "294", "lat":29.6335, "lng":-82.35524, "bldg":"0344", "cname":"IFAS LABORATORY (AGY)", "oname":"IFAS LABORATORY (AGY)", "add1":"2005 SW 23RD ST", "abbrev":"AGYL", "descrip":"", "url":""},{"bldgID": "295", "lat":29.63349, "lng":-82.35545, "bldg":"0345", "cname":"IFAS LABORATORY (AGY)", "oname":"IFAS LABORATORY (AGY)", "add1":"2005 SW 23RD ST", "abbrev":"NONE", "descrip":"", "url":""},{"bldgID": "296", "lat":29.63344, "lng":-82.3667, "bldg":"0346", "cname":"ENTOMOLOGY SHOP", "oname":"ENTOMOLOGY SHOP", "add1":"2027 NATURAL AREA DR", "abbrev":"ENYS", "descrip":"", "url":""},{"bldgID": "297", "lat":29.63997, "lng":-82.3676, "bldg":"0347", "cname":"REC. SPORTS SCORE KEEPER", "oname":"REC FACILITIES SCORE KEEPER", "add1":"1341 BLEDSOE DR", "abbrev":"", "descrip":"", "url":""},{"bldgID": "298", "lat":29.63873, "lng":-82.37113, "bldg":"0348", "cname":"UNIVERSITY VILLAGE STORAGE", "oname":"UNIVERSITY VILLAGE STORAGE", "add1":"", "abbrev":"", "descrip":"", "url":""},{"bldgID": "299", "lat":29.6358, "lng":-82.3711, "bldg":"0349", "cname":"LEPIDOPTERA RES CTR GREENHOUSE", "oname":"LEPIDOPTERA RES CTR GREENHOUSE", "add1":"3215 HULL RD", "abbrev":"NONE", "descrip":"", "url":""},{"bldgID": "300", "lat":29.6335, "lng":-82.35567, "bldg":"0350", "cname":"BIO-CONTROL LABORATORY", "oname":"BIO-CONTROL LABORATORY", "add1":"2005 SW 23RD ST", "abbrev":"BCL", "descrip":"", "url":""},{"bldgID": "301", "lat":29.64571, "lng":-82.34148, "bldg":"0351", "cname":"BORC GATEHOUSE", "oname":"BORC GATEHOUSE", "add1":"647 BROWARD DR", "abbrev":"NONE", "descrip":"", "url":""},{"bldgID": "302", "lat":29.64591, "lng":-82.34148, "bldg":"0352", "cname":"BORC RESTROOM", "oname":"BORC RESTROOM", "add1":"", "abbrev":"NONE", "descrip":"", "url":""},{"bldgID": "303", "lat":29.64533, "lng":-82.34172, "bldg":"0353", "cname":"BORC PAVILION", "oname":"BORC PAVILION", "add1":"", "abbrev":"NONE", "descrip":"", "url":""},{"bldgID": "304", "lat":29.65143, "lng":-82.34569, "bldg":"0355", "cname":"MURPHREE HALL AREA COMMONS", "oname":"MURPHREE HALL AREA COMMONS", "add1":"54 BUCKMAN DR", "abbrev":"", "descrip":"", "url":""},{"bldgID": "305", "lat":29.64601, "lng":-82.34086, "bldg":"0356", "cname":"POOL MAINTENANCE BLDG-HOUSING", "oname":"POOL MAINTENANCE BLDG-HOUSING", "add1":"639 BROWARD DR", "abbrev":"", "descrip":"", "url":""},{"bldgID": "306", "lat":29.64615, "lng":-82.35197, "bldg":"0357", "cname":"POOL MAINTENANCE BLDG-HOUSING", "oname":"POOL MAINTENANCE BLDG-HOUSING", "add1":"2096 MUSEUM RD", "abbrev":"", "descrip":"", "url":""},{"bldgID": "307", "lat":29.64527, "lng":-82.34301, "bldg":"0358", "cname":"PARKING GARAGE 4 (MUSEUM RD)", "oname":"PARKING GARAGE 4 (MUSEUM RD)", "add1":"759 NEWELL DR", "abbrev":"", "descrip":"", "url":""},{"bldgID": "308", "lat":29.64804, "lng":-82.35013, "bldg":"0359", "cname":"GATOR CORNER DINING FACILITY", "oname":"GATOR CORNER DINING FACILITY", "add1":"2021 STADIUM RD", "abbrev":"FSF", "descrip":"", "url":""},{"bldgID": "309", "lat":29.63946, "lng":-82.37068, "bldg":"0361", "cname":"HOUSING BUS SHELTER (MAGUIRE)", "oname":"HOUSING BUS SHELTER (MAGUIRE)", "add1":"1396 ORANGE DR", "abbrev":"NONE", "descrip":"", "url":""},{"bldgID": "310", "lat":29.64761, "lng":-82.3603, "bldg":"0362", "cname":"HOUSING BUS SHELTER (CORRY)", "oname":"HOUSING BUS SHELTER (CORRY)", "add1":"502 CORRY CIR", "abbrev":"NONE", "descrip":"", "url":""},{"bldgID": "311", "lat":29.6406, "lng":-82.34868, "bldg":"0363", "cname":"FLORIDA POWER SUBSTATION", "oname":"FLORIDA POWER SUBSTATION", "add1":"1928 MOWRY RD", "abbrev":"", "descrip":"", "url":""},{"bldgID": "312", "lat":29.63866, "lng":-82.34776, "bldg":"0364", "cname":"PARKING GARAGE 3 (SHANDS WEST)", "oname":"PARKING GARAGE 3 (SHANDS WEST)", "add1":"1879 MOWRY RD", "abbrev":"", "descrip":"", "url":""},{"bldgID": "313", "lat":29.64023, "lng":-82.37187, "bldg":"0365", "cname":"MAGUIRE APARTMENTS NO. 1", "oname":"MAGUIRE  1", "add1":"1303 BLUE CIR", "abbrev":"", "descrip":"", "url":""},{"bldgID": "314", "lat":29.64116, "lng":-82.37189, "bldg":"0366", "cname":"MAGUIRE APARTMENTS NO. 2", "oname":"MAGUIRE  2", "add1":"1201 BLUE CIR", "abbrev":"", "descrip":"", "url":""},{"bldgID": "315", "lat":29.6403, "lng":-82.37153, "bldg":"0367", "cname":"MAGUIRE APARTMENTS NO. 3", "oname":"MAGUIRE  3", "add1":"1309 BLUE CIR", "abbrev":"", "descrip":"", "url":""},{"bldgID": "316", "lat":29.64064, "lng":-82.37164, "bldg":"0368", "cname":"MAGUIRE APARTMENTS NO. 4", "oname":"MAGUIRE  4", "add1":"1255 BLUE CIR", "abbrev":"", "descrip":"", "url":""},{"bldgID": "317", "lat":29.6409, "lng":-82.3715, "bldg":"0369", "cname":"MAGUIRE APARTMENTS NO. 5", "oname":"MAGUIRE  5", "add1":"1229 BLUE CIR", "abbrev":"", "descrip":"", "url":""},{"bldgID": "318", "lat":29.64115, "lng":-82.3713, "bldg":"0370", "cname":"MAGUIRE APARTMENTS NO. 6", "oname":"MAGUIRE  6", "add1":"1215 BLUE CIR", "abbrev":"", "descrip":"", "url":""},{"bldgID": "319", "lat":29.64128, "lng":-82.3716, "bldg":"0371", "cname":"MAGUIRE APARTMENTS NO. 7", "oname":"MAGUIRE  7", "add1":"1197 BLUE CIR", "abbrev":"", "descrip":"", "url":""},{"bldgID": "320", "lat":29.64154, "lng":-82.3714, "bldg":"0372", "cname":"MAGUIRE APARTMENTS NO. 8", "oname":"MAGUIRE  8", "add1":"1163 BLUE CIR", "abbrev":"", "descrip":"", "url":""},{"bldgID": "321", "lat":29.64003, "lng":-82.37116, "bldg":"0373", "cname":"MAGUIRE APARTMENTS NO. 9", "oname":"MAGUIRE  9", "add1":"1386 ORANGE DR", "abbrev":"", "descrip":"", "url":""},{"bldgID": "322", "lat":29.6405, "lng":-82.37125, "bldg":"0374", "cname":"MAGUIRE APARTMENTS NO. 10", "oname":"MAGUIRE 10", "add1":"1271 BLUE CIR", "abbrev":"", "descrip":"", "url":""},{"bldgID": "323", "lat":29.64076, "lng":-82.37105, "bldg":"0375", "cname":"MAGUIRE APARTMENTS NO. 11", "oname":"MAGUIRE 11", "add1":"1247 BLUE CIR", "abbrev":"", "descrip":"", "url":""},{"bldgID": "324", "lat":29.64145, "lng":-82.37094, "bldg":"0376", "cname":"MAGUIRE APARTMENTS NO. 12", "oname":"MAGUIRE 12", "add1":"1129 BLUE CIR", "abbrev":"", "descrip":"", "url":""},{"bldgID": "325", "lat":29.64114, "lng":-82.3708, "bldg":"0377", "cname":"MAGUIRE VILLAGE COMMONS", "oname":"MAGUIRE 13", "add1":"1214 ORANGE DR", "abbrev":"", "descrip":"", "url":""},{"bldgID": "326", "lat":29.6417, "lng":-82.37114, "bldg":"0378", "cname":"MAGUIRE APARTMENTS NO. 14", "oname":"MAGUIRE 14", "add1":"1135 BLUE CIR", "abbrev":"", "descrip":"", "url":""},{"bldgID": "327", "lat":29.63992, "lng":-82.37089, "bldg":"0379", "cname":"MAGUIRE APARTMENTS NO. 15", "oname":"MAGUIRE 15", "add1":"1378 ORANGE DR", "abbrev":"", "descrip":"", "url":""},{"bldgID": "328", "lat":29.6401, "lng":-82.3706, "bldg":"0380", "cname":"MAGUIRE APARTMENTS NO. 16", "oname":"MAGUIRE 16", "add1":"1360 ORANGE DR", "abbrev":"", "descrip":"", "url":""},{"bldgID": "329", "lat":29.64034, "lng":-82.37082, "bldg":"0381", "cname":"MAGUIRE APARTMENTS NO. 17", "oname":"MAGUIRE 17", "add1":"1372 ORANGE DR", "abbrev":"", "descrip":"", "url":""},{"bldgID": "330", "lat":29.64052, "lng":-82.37059, "bldg":"0382", "cname":"MAGUIRE APARTMENTS NO. 18", "oname":"MAGUIRE 18", "add1":"1296 ORANGE DR", "abbrev":"", "descrip":"", "url":""},{"bldgID": "331", "lat":29.64128, "lng":-82.37043, "bldg":"0383", "cname":"MAGUIRE APARTMENTS NO. 19", "oname":"MAGUIRE 19", "add1":"1206 ORANGE DR", "abbrev":"", "descrip":"", "url":""},{"bldgID": "332", "lat":29.64147, "lng":-82.37054, "bldg":"0384", "cname":"MAGUIRE APARTMENTS NO. 20", "oname":"MAGUIRE 20", "add1":"1172 ORANGE DR", "abbrev":"", "descrip":"", "url":""},{"bldgID": "333", "lat":29.64175, "lng":-82.37071, "bldg":"0385", "cname":"MAGUIRE APARTMENTS NO. 21", "oname":"MAGUIRE 21", "add1":"1119 BLUE CIR", "abbrev":"", "descrip":"", "url":""},{"bldgID": "334", "lat":29.64187, "lng":-82.37042, "bldg":"0386", "cname":"MAGUIRE APARTMENTS NO. 22", "oname":"MAGUIRE 22", "add1":"1112 ORANGE DR", "abbrev":"", "descrip":"", "url":""},{"bldgID": "335", "lat":29.64026, "lng":-82.37031, "bldg":"0387", "cname":"MAGUIRE APARTMENTS NO. 23", "oname":"MAGUIRE 23", "add1":"1318 ORANGE DR", "abbrev":"", "descrip":"", "url":""},{"bldgID": "336", "lat":29.64045, "lng":-82.37002, "bldg":"0388", "cname":"MAGUIRE APARTMENTS NO. 24", "oname":"MAGUIRE 24", "add1":"1292 ORANGE DR", "abbrev":"", "descrip":"", "url":""},{"bldgID": "337", "lat":29.64071, "lng":-82.3698, "bldg":"0389", "cname":"MAGUIRE APARTMENTS NO. 25", "oname":"MAGUIRE 25", "add1":"1270 ORANGE DR", "abbrev":"", "descrip":"", "url":""},{"bldgID": "338", "lat":29.64078, "lng":-82.37014, "bldg":"0390", "cname":"MAGUIRE APARTMENTS NO. 26", "oname":"MAGUIRE 26", "add1":"1274 ORANGE DR", "abbrev":"", "descrip":"", "url":""},{"bldgID": "339", "lat":29.6412, "lng":-82.37014, "bldg":"0391", "cname":"MAGUIRE APARTMENTS NO. 27", "oname":"MAGUIRE 27", "add1":"1202 ORANGE DR", "abbrev":"", "descrip":"", "url":""},{"bldgID": "340", "lat":29.64136, "lng":-82.36985, "bldg":"0392", "cname":"MAGUIRE APARTMENTS NO. 28", "oname":"MAGUIRE 28", "add1":"1194 ORANGE DR", "abbrev":"", "descrip":"", "url":""},{"bldgID": "341", "lat":29.6416, "lng":-82.37003, "bldg":"0393", "cname":"MAGUIRE APARTMENTS NO. 29", "oname":"MAGUIRE 29", "add1":"1158 ORANGE DR", "abbrev":"", "descrip":"", "url":""},{"bldgID": "342", "lat":29.64056, "lng":-82.37083, "bldg":"0394", "cname":"MAGUIRE POOL FILTRATION", "oname":"MAGUIRE POOL FILTRATION", "add1":"", "abbrev":"", "descrip":"", "url":""},{"bldgID": "343", "lat":29.64067, "lng":-82.37092, "bldg":"0395", "cname":"MAGUIRE POOL RESTROOM", "oname":"MAGUIRE POOL RESTROOM", "add1":"", "abbrev":"", "descrip":"", "url":""},{"bldgID": "344", "lat":29.78116, "lng":-82.41619, "bldg":"0396", "cname":"SHADE HOUSE", "oname":"SHADE HOUSE (HAGUE)", "add1":"CR-237", "abbrev":"NONE", "descrip":"", "url":""},{"bldgID": "345", "lat":29.64326, "lng":-82.35126, "bldg":"0397", "cname":"PARKING GARAGE 5 (N/S DRIVE)", "oname":"PARKING GARAGE 5 (N/S DRIVE)", "add1":"966 GALE LEMERAND DR", "abbrev":"", "descrip":"", "url":""},{"bldgID": "346", "lat":29.65251, "lng":-82.34811, "bldg":"0398", "cname":"ALPHA ETA HOUSE CORP", "oname":"ALPHA ETA HOUSE CORP", "add1":"", "abbrev":"NONE", "descrip":"", "url":""},{"bldgID": "347", "lat":29.64736, "lng":-82.35842, "bldg":"0399", "cname":"FRATERNITY -SIGMA NU", "oname":"SIGMA NU", "add1":"2371 WEST FRATERNITY DR", "abbrev":"NONE", "descrip":"", "url":""},{"bldgID": "348", "lat":29.64578, "lng":-82.35666, "bldg":"0400", "cname":"FRATERNITY -KAPPA ALPHA", "oname":"KAPPA ALPHA", "add1":"763 FRATERNITY DR", "abbrev":"KA", "descrip":"", "url":""},{"bldgID": "349", "lat":29.75056, "lng":-82.21931, "bldg":"0402", "cname":"WORKSHOP, FORESTRY-ACMF", "oname":"WORKSHOP, FORESTRY-ACMF", "add1":"10625 NE WALDO ROAD", "abbrev":"", "descrip":"", "url":""},{"bldgID": "350", "lat":29.75065, "lng":-82.21932, "bldg":"0404", "cname":"LAKE MIZE PUMP, FORESTRY-ACMF", "oname":"LAKE MIZE PUMP, FORESTRY-ACMF", "add1":"10625 NE WALDO ROAD", "abbrev":"", "descrip":"", "url":""},{"bldgID": "351", "lat":29.75011, "lng":-82.21574, "bldg":"0405", "cname":"WOODSHOP, FORESTRY-ACMF", "oname":"WOODSHOP, FORESTRY-ACMF", "add1":"10625 NE WALDO ROAD", "abbrev":"", "descrip":"", "url":""},{"bldgID": "352", "lat":29.65163, "lng":-82.34104, "bldg":"0406", "cname":"MATHERLY HALL", "oname":"WALTER J. MATHERLY HALL", "add1":"1405 W UNIVERSITY AV", "abbrev":"MAT", "descrip":"Named for Walter Jeffries Matherly", "url":""},{"bldgID": "353", "lat":29.64467, "lng":-82.33895, "bldg":"0407", "cname":"SORORITY -DELTA GAMMA", "oname":"DELTA GAMMA", "add1":"", "abbrev":"NONE", "descrip":"", "url":""},{"bldgID": "354", "lat":29.64426, "lng":-82.33804, "bldg":"0408", "cname":"SORORITY -ALPHA OMICRON PI", "oname":"ALPHA OMICRON PI", "add1":"", "abbrev":"AOP", "descrip":"", "url":""},{"bldgID": "355", "lat":29.6439, "lng":-82.33815, "bldg":"0409", "cname":"SORORITY -ALPHA DELTA PI", "oname":"ALPHA DELTA PI", "add1":"", "abbrev":"ADP", "descrip":"", "url":""},{"bldgID": "356", "lat":29.64437, "lng":-82.33742, "bldg":"0410", "cname":"SORORITY -ZETA TAU ALPHA", "oname":"ZETA TAU ALPHA", "add1":"", "abbrev":"ZTA", "descrip":"", "url":""},{"bldgID": "357", "lat":29.64462, "lng":-82.33714, "bldg":"0411", "cname":"SORORITY -DELTA DELTA DELTA", "oname":"DELTA DELTA DELTA", "add1":"", "abbrev":"NONE", "descrip":"", "url":""},{"bldgID": "358", "lat":29.64455, "lng":-82.33611, "bldg":"0412", "cname":"SORORITY -SIGMA KAPPA", "oname":"SIGMA KAPPA", "add1":"", "abbrev":"SK", "descrip":"", "url":""},{"bldgID": "359", "lat":29.64429, "lng":-82.33889, "bldg":"0413", "cname":"SORORITY -ALPHA CHI OMEGA", "oname":"ALPHA CHI OMEGA", "add1":"", "abbrev":"ACO", "descrip":"", "url":""},{"bldgID": "360", "lat":29.64466, "lng":-82.33805, "bldg":"0414", "cname":"SORORITY -CHI OMEGA", "oname":"CHI OMEGA", "add1":"", "abbrev":"CO", "descrip":"", "url":""},{"bldgID": "361", "lat":29.64462, "lng":-82.33652, "bldg":"0415", "cname":"SORORITY -KAPPA DELTA", "oname":"KAPPA DELTA", "add1":"", "abbrev":"KD", "descrip":"", "url":""},{"bldgID": "362", "lat":29.6439, "lng":-82.33761, "bldg":"0416", "cname":"SORORITY -PHI MU", "oname":"PHI MU", "add1":"", "abbrev":"FM", "descrip":"", "url":""},{"bldgID": "363", "lat":29.64389, "lng":-82.33883, "bldg":"0417", "cname":"SORORITY -ALPHA EPSILON PHI", "oname":"ALPHA EPSILON PHI", "add1":"", "abbrev":"NONE", "descrip":"", "url":""},{"bldgID": "364", "lat":29.64732, "lng":-82.3595, "bldg":"0418", "cname":"SORORITY -PI BETA PHI", "oname":"PI BETA PHI", "add1":"2489  W FRATERNITY DR", "abbrev":"PBF", "descrip":"", "url":""},{"bldgID": "365", "lat":29.64524, "lng":-82.35446, "bldg":"0419", "cname":"FRATERNITY - CHI PHI", "oname":"CHI PHI", "add1":"2228 MUSEUM RD", "abbrev":"CP", "descrip":"", "url":""},{"bldgID": "366", "lat":29.64538, "lng":-82.35506, "bldg":"0420", "cname":"FRATERNITY-SIGMA ALPHA EPSILON", "oname":"SIGMA ALPHA EPSILON", "add1":"2256 MUSEUM RD", "abbrev":"SAE", "descrip":"", "url":""},{"bldgID": "367", "lat":29.64543, "lng":-82.35577, "bldg":"0421", "cname":"FRATERNITY -LAMBDA CHI ALPHA", "oname":"LAMBDA CHI ALPHA", "add1":"2274 MUSEUM RD", "abbrev":"LCA", "descrip":"", "url":""},{"bldgID": "368", "lat":29.64554, "lng":-82.35617, "bldg":"0422", "cname":"FRATERNITY -SIGMA PHI EPSILON", "oname":"SIGMA PHI EPSILON", "add1":"2290 MUSEUM RD", "abbrev":"SFE", "descrip":"", "url":""},{"bldgID": "369", "lat":29.64608, "lng":-82.35691, "bldg":"0423", "cname":"FRATERNITY -DELTA CHI", "oname":"DELTA CHI", "add1":"725 FRATERNITY DR", "abbrev":"NONE", "descrip":"", "url":""},{"bldgID": "370", "lat":29.64639, "lng":-82.35704, "bldg":"0424", "cname":"FRATERNITY -PHI GAMMA DELTA", "oname":"PHI GAMMA DELTA", "add1":"667 FRATERNITY DR", "abbrev":"NONE", "descrip":"", "url":""},{"bldgID": "371", "lat":29.64672, "lng":-82.35716, "bldg":"0425", "cname":"FRATERNITY -SIGMA CHI", "oname":"SIGMA CHI", "add1":"611 FRATERNITY DR", "abbrev":"SC", "descrip":"", "url":""},{"bldgID": "372", "lat":29.64711, "lng":-82.35724, "bldg":"0426", "cname":"FRATERNITY -TAU EPSILON PHI", "oname":"TAU EPSILON PHI", "add1":"555 FRATERNITY DR", "abbrev":"TEP", "descrip":"", "url":""},{"bldgID": "373", "lat":29.64747, "lng":-82.35717, "bldg":"0427", "cname":"FRATERNITY -THETA CHI", "oname":"THETA CHI", "add1":"501 FRATERNITY DR", "abbrev":"QC", "descrip":"", "url":""},{"bldgID": "374", "lat":29.64778, "lng":-82.35707, "bldg":"0428", "cname":"FRATERNITY -PI KAPPA PHI", "oname":"PI KAPPA PHI", "add1":"419 FRATERNITY DR", "abbrev":"PKF", "descrip":"", "url":""},{"bldgID": "375", "lat":29.64266, "lng":-82.37013, "bldg":"0429", "cname":"TELECOMMUNICATIONS", "oname":"TELECOMMUNICATIONS", "add1":"3252 RADIO RD", "abbrev":"TEL", "descrip":"", "url":""},{"bldgID": "376", "lat":29.64816, "lng":-82.35635, "bldg":"0430", "cname":"FRATERNITY -BETA THETA PI", "oname":"BETA THETA PI", "add1":"2315 FRATERNITY DR", "abbrev":"BQP", "descrip":"", "url":""},{"bldgID": "377", "lat":29.64812, "lng":-82.35597, "bldg":"0431", "cname":"FRATERNITY -ALPHA EPSILON PI", "oname":"ALPHA EPSILON PI", "add1":"2303 FRATERNITY DR", "abbrev":"AEP", "descrip":"", "url":""},{"bldgID": "378", "lat":29.64805, "lng":-82.35556, "bldg":"0432", "cname":"FRATERNITY -PI LAMBDA PHI", "oname":"PI LAMBDA PHI", "add1":"2285 FRATERNITY DR", "abbrev":"PLP", "descrip":"", "url":""},{"bldgID": "379", "lat":29.62869, "lng":-82.35456, "bldg":"0433", "cname":"IFAS PUMP HOUSE", "oname":"IFAS PUMP HOUSE", "add1":"2185 RITCHY RD", "abbrev":"", "descrip":"", "url":""},{"bldgID": "380", "lat":29.64197, "lng":-82.3679, "bldg":"0434", "cname":"BEHAVIOR LAB ANNEX (MUSEUM)", "oname":"BEHAVIOR LAB ANNEX", "add1":"3091 RADIO RD", "abbrev":"BLAX", "descrip":"", "url":""},{"bldgID": "381", "lat":29.75072, "lng":-82.21936, "bldg":"0435", "cname":"PICNIC SHELTER, FORESTRY-ACMF", "oname":"PICNIC SHELTER, FORESTRY-ACMF", "add1":"10625 NE WALDO ROAD", "abbrev":"", "descrip":"", "url":""},{"bldgID": "382", "lat":29.75001, "lng":-82.2161, "bldg":"0436", "cname":"SAWMILL, FORESTRY-ACMF", "oname":"SAWMILL, FORESTRY-ACMF", "add1":"10625 NE WALDO ROAD", "abbrev":"", "descrip":"", "url":""},{"bldgID": "383", "lat":29.64265, "lng":-82.36653, "bldg":"0437", "cname":"FIBER HUT ELMORE", "oname":"FIBER HUT ELMORE", "add1":"1063 ELMORE DR", "abbrev":"NONE", "descrip":"", "url":""},{"bldgID": "384", "lat":29.77992, "lng":-82.41633, "bldg":"0438", "cname":"MAINTENANCE SHOP", "oname":"MAINTENANCE SHOP (HAGUE)", "add1":"CR-237", "abbrev":"NONE", "descrip":"", "url":""},{"bldgID": "385", "lat":29.74463, "lng":-82.26544, "bldg":"0439", "cname":"RESIDENCE", "oname":"RESIDENCE", "add1":"9800 N CR 255", "abbrev":"NONE", "descrip":"", "url":""},{"bldgID": "386", "lat":29.63972, "lng":-82.35677, "bldg":"0440", "cname":"IFAS EXTENSION BOOKSTORE", "oname":"IFAS EXTENSION BOOKSTORE", "add1":"1374 SABLE PALM DR", "abbrev":"NONE", "descrip":"", "url":""},{"bldgID": "387", "lat":29.63671, "lng":-82.36187, "bldg":"0441", "cname":"GREENHOUSE, VEGETABLE CROPS", "oname":"GREENHOUSE, VEGETABLE CROPS", "add1":"1703 IFAS RESEARCH DR", "abbrev":"GVC1", "descrip":"", "url":""},{"bldgID": "388", "lat":29.64551, "lng":-82.33749, "bldg":"0442", "cname":"PARKING GARAGE 8 (NORMAN)", "oname":"PARKING GARAGE 8 (NORMAN)", "add1":"1210 SW 8TH AV", "abbrev":"NONE", "descrip":"", "url":""},{"bldgID": "389", "lat":29.77879, "lng":-82.41612, "bldg":"0443", "cname":"STORAGE BUILDING (HAGUE)", "oname":"STORAGE BUILDING (HAGUE)", "add1":"CR-237", "abbrev":"", "descrip":"", "url":""},{"bldgID": "390", "lat":29.63919, "lng":-82.35611, "bldg":"0444", "cname":"GREENHOUSE, PLANT PATHOLOGY", "oname":"GREENHOUSE, PLANT PATHOLOGY", "add1":"1447 SABLE PALM DR", "abbrev":"GP5", "descrip":"", "url":""},{"bldgID": "391", "lat":29.64048, "lng":-82.34463, "bldg":"0445", "cname":"STETSON MEDICAL SCIENCES", "oname":"STETSON MEDICAL SCIENCES", "add1":"1345 CENTER DR", "abbrev":"MSB", "descrip":"", "url":""},{"bldgID": "392", "lat":29.64001, "lng":-82.3439, "bldg":"0446", "cname":"SHANDS TEACHING HOSPITAL", "oname":"WM A. SHANDS TEACHING HOSPITAL", "add1":"1600 SW ARCHER RD", "abbrev":"THC", "descrip":"", "url":""},{"bldgID": "393", "lat":29.64881, "lng":-82.34332, "bldg":"0448", "cname":"CENTURY TOWER", "oname":"CENTURY TOWER", "add1":"375 NEWELL DR", "abbrev":"CENT", "descrip":"Height of the tower is 157 feet", "url":"http://www.arts.ufl.edu/carillon/index.shtml"},{"bldgID": "394", "lat":29.63862, "lng":-82.35734, "bldg":"0449", "cname":"AGRONOMY SEED PROCESSING LAB", "oname":"AGRONOMY SEED PROCESSING LAB", "add1":"1492 DATE PALM RD", "abbrev":"ASPL", "descrip":"", "url":""},{"bldgID": "395", "lat":29.74958, "lng":-82.21564, "bldg":"0453", "cname":"EQUIP STOR, FORESTRY-ACMF", "oname":"EQUIPMENT STORAGE, FORESTRY-ACMF", "add1":"10625 NE WALDO ROAD", "abbrev":"NONE", "descrip":"", "url":""},{"bldgID": "396", "lat":29.6406, "lng":-82.34291, "bldg":"0454", "cname":"HUMAN DEVELOPMENT CENTER", "oname":"HUMAN DEVELOPMENT CENTER", "add1":"1244 NEWELL DR", "abbrev":"HDC", "descrip":"", "url":""},{"bldgID": "397", "lat":29.63658, "lng":-82.36145, "bldg":"0455", "cname":"STORAGE BLDG", "oname":"STORAGE BLDG", "add1":"", "abbrev":"NONE", "descrip":"", "url":""},{"bldgID": "398", "lat":29.64626, "lng":-82.34494, "bldg":"0456", "cname":"VENDING MACHINES SHELTER", "oname":"VENDING MACHINES SHELTER", "add1":"1684 MCCARTY DR", "abbrev":"", "descrip":"", "url":""},{"bldgID": "399", "lat":29.64015, "lng":-82.34231, "bldg":"0457", "cname":"SHANDS IN-PATIENT MRI BUILDING", "oname":"SHANDS IN-PATIENT MRI BUILDING", "add1":"1302 NEWELL DR", "abbrev":"MRI", "descrip":"", "url":""},{"bldgID": "400", "lat":29.63659, "lng":-82.36158, "bldg":"0458", "cname":"VEGETABLE CROPS CLASSLAB/STOR", "oname":"VEGETABLE CROPS CLASSLAB/STOR", "add1":"1703 IFAS RESEARCH DR", "abbrev":"VCG", "descrip":"", "url":""},{"bldgID": "401", "lat":29.63128, "lng":-82.35179, "bldg":"0459", "cname":"ANIMAL SCIENCES BUILDING", "oname":"ANIMAL SCIENCES BUILDING", "add1":"2250 SHEALY DR", "abbrev":"ANS", "descrip":"", "url":""},{"bldgID": "402", "lat":29.72728, "lng":-82.41759, "bldg":"0460", "cname":"AQUATIC WEEDS RES CTR (MLHPR)", "oname":"AQUATIC WEEDS RES CTR (MLHPR)", "add1":"7922 NW 71ST STREET", "abbrev":"AQW1", "descrip":"", "url":""},{"bldgID": "403", "lat":29.6469, "lng":-82.34396, "bldg":"0461", "cname":"AQUATIC PRODUCTS LAB", "oname":"AQUATIC PRODUCTS LAB", "add1":"586 NEWELL DR", "abbrev":"APL", "descrip":"", "url":""},{"bldgID": "404", "lat":29.64027, "lng":-82.3465, "bldg":"0462", "cname":"SHEPARD BROAD BLDG", "oname":"SHEPARD BROAD BUILDING", "add1":"1300 CENTER DR", "abbrev":"SBB", "descrip":"", "url":""},{"bldgID": "405", "lat":29.63697, "lng":-82.3619, "bldg":"0463", "cname":"GREENHOUSE, VEGETABLE CROPS", "oname":"GREENHOUSE,VEGETABLE CROPS", "add1":"1703 IFAS RESEARCH DR", "abbrev":"GVC2", "descrip":"", "url":""},{"bldgID": "406", "lat":29.64347, "lng":-82.36615, "bldg":"0465", "cname":"ELMORE HALL FOR ADMIN SERVICES", "oname":"ELMORE HALL FOR ADMIN SERVICES", "add1":"971 ELMORE DR", "abbrev":"ASF", "descrip":"", "url":""},{"bldgID": "407", "lat":29.63278, "lng":-82.35319, "bldg":"0466", "cname":"ANIMAL SCI PHYSIOLOGY BARN", "oname":"ANIMAL SCI. PHYSIOLOGY BARN", "add1":"2108 SHEALY DR", "abbrev":"ASPB", "descrip":"", "url":""},{"bldgID": "408", "lat":29.64711, "lng":-82.34457, "bldg":"0467", "cname":"PUMP HOUSE (E&G)", "oname":"PUMP HOUSE (E&G)", "add1":"552 NEWELL DR", "abbrev":"", "descrip":"", "url":""},{"bldgID": "409", "lat":29.64262, "lng":-82.36514, "bldg":"0468", "cname":"GREENHOUSE, GROUNDS", "oname":"GREENHOUSE, GROUNDS", "add1":"", "abbrev":"GG1", "descrip":"", "url":""},{"bldgID": "410", "lat":29.63723, "lng":-82.36192, "bldg":"0469", "cname":"GREENHOUSE, HORT SCIENCES", "oname":"GREENHOUSE, HORT SCIENCES", "add1":"1703 IFAS RESEARCH DR", "abbrev":"GHS1", "descrip":"", "url":""},{"bldgID": "411", "lat":29.63677, "lng":-82.35307, "bldg":"0471", "cname":"VETERINARY SCIENCE BUILDING", "oname":"VETERINARY SCIENCE", "add1":"2187 MOWRY RD", "abbrev":"VET", "descrip":"", "url":""},{"bldgID": "412", "lat":29.72152, "lng":-82.41834, "bldg":"0472", "cname":"EQUIPMENT STORAGE", "oname":"EQUIPMENT STORAGE (MLHPR)", "add1":"7922 NW 71ST STREET", "abbrev":"HEQ1", "descrip":"", "url":""},{"bldgID": "413", "lat":29.64059, "lng":-82.34695, "bldg":"0473", "cname":"LACY RABON CHILLED WATER PLANT", "oname":"LACY RABON CHILLED WATER PLANT", "add1":"1858 MOWRY RD", "abbrev":"CWP2", "descrip":"", "url":""},{"bldgID": "414", "lat":29.64443, "lng":-82.34543, "bldg":"0474", "cname":"ROGERS, FRAZIER HALL", "oname":"FRAZIER ROGERS HALL", "add1":"1741 MUSEUM RD", "abbrev":"ROG", "descrip":"", "url":""},{"bldgID": "415", "lat":29.64691, "lng":-82.34439, "bldg":"0475", "cname":"FOOD SCIENCE & HUMAN NUTRITION", "oname":"FOOD SCIENCE & HUMAN NUTRITION", "add1":"572 NEWELL DR", "abbrev":"FSN", "descrip":"", "url":""},{"bldgID": "416", "lat":29.64706, "lng":-82.34474, "bldg":"0476", "cname":"MCCARTY STORAGE", "oname":"MCCARTY STORAGE", "add1":"564 NEWELL DR", "abbrev":"MCCS", "descrip":"", "url":""},